Client Name,Count of PRIMARY_FAC_ID,Facility Name,Emission Amount(In Tons),Facility Type,Latitude,Longitude
GANS ENERGY LLC,1,GANS ENERGY LLC/GANS POWER STA,93145.403,AEP - Air Emission Plant,39.747518,-79.838772
WEST SALISBURY FOUNDRY & MACH CO INC,1,WEST SALISBURY FOUND/WEST SALISBURY PLT,66.7813,AEP - Air Emission Plant,39.754017,-79.096074
CUMBERLAND CONTURA LLC,1,CUMBERLAND CONTURA LLC/CUMBERLAND MINE,801.353,AEP - Air Emission Plant,39.794726,-80.162555
CARLISLE SYNTEC DIV CARLISLE CONST MATERIALS LLC,1,CARLISLE CONST MATLS/HUNTER PANEL PLT,1196.3,AEP - Air Emission Plant,39.804167,-79.779167
EQT PROD CO,1,EQT PROD CO / PLHC WELLPAD,262.7518,AEP - Air Emission Plant,39.836389,-80.277411
RICE DRILLING B LLC,1,RICE DRILLING B LLC / THROCKMORTON WELLPAD,859.7156,AEP - Air Emission Plant,39.838105,-80.220603
DYNEGY FAYETTE II LLC,1,FAYETTE ENERGY CENTER/MASONTOWN,1954311.21,AEP - Air Emission Plant,39.857408,-79.913878
DOMINION ENERGY TRANS INC,1,DOMINION ENERGY TRANS INC/NORTH SUMMIT,6466.343,AEP - Air Emission Plant,39.859276,-79.6526
TEXAS EASTERN TRANS LP,1,TEXAS EASTERN TRANS LP/HOLBROOK STA,254.7303,AEP - Air Emission Plant,39.89016,-80.452156
ADVANCED DSPL SVC CHESTNUT VALLEY LDFL INC,1,ADVANCED DISPOSAL SVC CHESTNUT VALLEY LDFL INC/GERMAN TWP,20354.08,AEP - Air Emission Plant,39.896068,-79.801062
DOMINION ENERGY TRANS INC,1,DOMINION ENERGY TRANS INC/CRAYNE STA,40331.9504,AEP - Air Emission Plant,39.918889,-80.123889
TEXAS EASTERN TRANS LP,1,TEXAS EASTERN TRANS LP/WAYNESBURG STA,22502.9411,AEP - Air Emission Plant,39.919508,-80.124998
TEXAS EASTERN TRANS LP,1,TEXAS EASTERN TRANS LP/UNIONTOWN STA,28337.9451,AEP - Air Emission Plant,39.93111,-79.67
MOSTOLLER LDFL INC,1,MOSTOLLER LDFL INC/MOSTOLLER MUNICIPAL WASTE LDFL,11545.67,AEP - Air Emission Plant,39.971994,-78.989958
CONSOL PA COAL CO LLC,1,CONSOL PA COAL CO LLC/BAILEY PREP PLT,518.47,AEP - Air Emission Plant,39.972856,-80.41215
CROWN CORK & SEAL CO USA INC,1,CROWN CORK & SEAL CO/SOUTH CONNELLSVILLE,5367.002,AEP - Air Emission Plant,39.983639,-79.577717
FAYETTE THERMAL LLC,1,FAYETTE THERMAL/E MILLSBORO STEAM PLT,19440.4394,AEP - Air Emission Plant,39.992222,-79.988056
PEOPLES NATURAL GAS CO LLC,1,PEOPLES NATURAL GAS CO/CREIGHTON COMP STA,6056.3723,AEP - Air Emission Plant,40.000278,-79.999722
PA DEPT OF CORR,1,PA DEPT OF CORR/LAUREL HIGHLANDS SCI,27307.5594,AEP - Air Emission Plant,40.005894,-79.040712
MATTHEWS INTL CORP,1,MATTHEWS INTL BRONZE DIV/PGH,1074.1117,AEP - Air Emission Plant,40.05,-80.033333
PVS STEEL SVC INC,1,PVS STEEL SVC INC/ALLENPORT PLT,11430.7287,AEP - Air Emission Plant,40.079697,-79.87408
RICE DRILLING B LLC,1,RICE DRILLING/ MOJO PAD/ CONSTRUCTION MODIFICATON NOV,3157.4689,AEP - Air Emission Plant,40.088036,-80.212354
DURALOY TECH INC,1,DURALOY TECHNOLOGIES/SCOTTDALE,4462.093,AEP - Air Emission Plant,40.099066,-79.586344
SUMMERILL HIGH PRECISION TUBE LLC,1,SUMMERILL HIGH PRECISION TUBE LLC/SCOTTDALE PLT,532.1,AEP - Air Emission Plant,40.107236,-79.584063
SHADE LDFL INC,1,SHADE LDFL INC/SHADE LDFL,9272.2711,AEP - Air Emission Plant,40.121492,-78.800715
GREENRIDGE RECLAMATION LLC,1,GREENRIDGE RECLAMATION LLC/E HUNTINGDON,38736.32,AEP - Air Emission Plant,40.129722,-79.5825
CK COMPOSITES CO LLC,1,CK COMPOSITES CO LLC/MT PLEASANT,755.71,AEP - Air Emission Plant,40.129948,-79.534064
CORELLE BRANDS LLC,1,CORELLE BRANDS LLC/CHARLEROI PLT,29314.1975,AEP - Air Emission Plant,40.138376,-79.895649
WESTMORELAND SANI LDFL LLC,1,WESTMORELAND SANITARY LDFL LLC,26586.676,AEP - Air Emission Plant,40.143493,-79.856592
PEOPLES NATURAL GAS CO LLC,1,PEOPLES NATURAL GAS CO LLC/GIBSON STA,377.1908,AEP - Air Emission Plant,40.144232,-79.963876
ARCELORMITTAL MONESSEN LLC,1,ARCELORMITTAL MONESSEN LLC/MONESSEN COKE PLT,142744.6,AEP - Air Emission Plant,40.161411,-79.883417
JESSOP STEEL LLC,1,JESSOP STEEL LLC/WASHINGTON PLT,39525.3545,AEP - Air Emission Plant,40.173083,-80.274426
TENASKA PA PARTNERS LLC,1,TENASKA PA PARTNERS/WESTMORELAND GEN FAC,232121.2259,AEP - Air Emission Plant,40.176389,-79.693889
FLEXSYS AMER LP,1,FLEXSYS AMER LTD PAR/MONONGAHELA,13320.509,AEP - Air Emission Plant,40.180821,-79.925499
DNP IMAGINGCOMM AMER CORP,1,DNP IMS AMER/SONY TECH CTR NEW STANTON,0.0003,AEP - Air Emission Plant,40.186761,-79.57454
DYNO NOBEL INC,1,DYNO NOBEL INC/DONORA,454.159,AEP - Air Emission Plant,40.186992,-79.854923
NORTH AMER HOGANAS INC,1,NORTH AMERICAN HOGANAS INC/STONY CREEK PLT,33572.9,AEP - Air Emission Plant,40.191976,-78.934697
"THERM O ROCK EAST, INC",1,THERM O ROCK INC/NEW EAGLE PLT,1974.3175,AEP - Air Emission Plant,40.206474,-79.942484
ARDEN LDFL INC,1,ARDEN LDFL/CHARTIERS TWP,62282.278,AEP - Air Emission Plant,40.208429,-80.264767
POWEREX INC,1,POWEREX INC/YOUNGWOOD,41.4856,AEP - Air Emission Plant,40.233967,-79.567086
SOUTHERN ALLEGHENIES LDFL INC,1,SOUTHERN ALLEGHENY L/SOUTHERN ALLEGHENIES LDFL,17904.35,AEP - Air Emission Plant,40.236386,-78.900002
BRIDGESTONE AMER INC,1,FIRESTONE BLDG PROD CO/YOUNGWOOD PLT,1278.7824,AEP - Air Emission Plant,40.243047,-79.572772
KELLY RUN SANI INC,1,KELLY RUN SANI/MSW LDFL,24623.25,AEP - Air Emission Plant,40.253333,-79.871389
EQUITRANS LP,1,EQUITRANS LP/HARTSON,10388.7609,AEP - Air Emission Plant,40.255636,-79.961087
EASTMAN CHEM CO,1,EASTMAN CHEM RESINS INC/JEFFERSON SITE,32618.5336,AEP - Air Emission Plant,40.266316,-79.90245
GREENSBURG THERMAL LLC,1,GREENSBURG THERMAL LLC/GREENSBURG THERMAL LLC,224.4908,AEP - Air Emission Plant,40.269772,-79.562847
USA SOUTH HILLS LDFL INC,1,USA SOUTH HILLS LDFL/ UNION TWP,24668.34,AEP - Air Emission Plant,40.269951,-79.98854
ST VINCENT COLL,1,ST VINCENT COLL/LATROBE CAMPUS,3601.3351,AEP - Air Emission Plant,40.29479,-79.396387
DLP CONEMAUGH MEM MED CTR LLC DBA CONEMAUGH MEM MED CTR,1,CONEMAUGH MEM MED CTR/JOHNSTOWN,11568.9864,AEP - Air Emission Plant,40.296729,-78.918687
DOMINION ENERGY TRANS INC,1,DOMINION ENERGY TRANS INC/LINCOLN HEIGHTS,755.88,AEP - Air Emission Plant,40.300369,-79.619336
LATROBE SPECIALTY METALS A CARPENTER CO,1,LATROBE SPECIALTY METALS/ A CARPENTER CO,84585.4822,AEP - Air Emission Plant,40.303618,-79.370528
US STEEL DIV OF USS CORP,1,USS/CLAIRTON WORKS,823022.6662,AEP - Air Emission Plant,40.305088,-79.876911
KOPPERS INC,1,KOPPERS INC/CLAIRTON PLT,954.2372,AEP - Air Emission Plant,40.306794,-79.882844
GUTCHESS HARDWOODS INC,1,GUTCHESS HARDWOODS INC/LATROBE PLT,12.17,AEP - Air Emission Plant,40.307382,-79.394913
LEHIGH SPECIALTY MELTING INC,1,LEHIGH SPECIALTY MELTING/LATROBE,6679.9555,AEP - Air Emission Plant,40.307632,-79.380551
SETON HILL UNIV,1,SETON HILL UNIVERSITY/GREENSBURG CAMPUS,2737.9758,AEP - Air Emission Plant,40.310436,-79.55841
OPCO INC,1,OPCO INC/LATROBE,561.3398,AEP - Air Emission Plant,40.311389,-79.378333
CBC LATROBE ACQUISITION LLC,1,CBC LATROBE ACQUISITION LLC/LATROBE,7946.9707,AEP - Air Emission Plant,40.320809,-79.38871
TECH MET INC,1,TECH MET INC/GLASSPORT,351.1939,AEP - Air Emission Plant,40.320972,-79.892389
OMNOVA SOLUTIONS INC,1,OMNOVA SOLUTIONS INC/JEANNETTE PLT,3390.09,AEP - Air Emission Plant,40.323512,-79.618512
ATI FLAT ROLLED PROD HOLDINGS LLC,1,ATI FLAT ROLLED PRODUCTS HOLDINGS LLC/LATROBE,17079.12,AEP - Air Emission Plant,40.326449,-79.373275
CHESTNUT RIDGE FOAM INC,1,CHESTNUT RIDGE FOAM/LATROBE PLT,2870.2975,AEP - Air Emission Plant,40.327682,-79.358532
US STEEL CORP,1,US STEEL CORP/IRVIN PLT,401988.5772,AEP - Air Emission Plant,40.333834,-79.90195
ELLIOTT CO INC,1,ELLIOTT CO/JEANNETTE,17325.6063,AEP - Air Emission Plant,40.336303,-79.610835
LIBERTY POLYGLAS INC,1,LIBERTY PULTRUSIONS/WEST MIFFLIN,0.3296,AEP - Air Emission Plant,40.339539,-79.898455
GABRIEL PERFORMANCE PROD LLC,1,GABRIEL PERFORMANCE PROD LLC/MANOR PRODUCTS,1725,AEP - Air Emission Plant,40.343056,-79.659167
JOHNSTOWN WIRE TECHS INC,1,JOHNSTOWN WIRE TECH/JOHNSTOWN WIRE PLT,22295.4982,AEP - Air Emission Plant,40.35172,-78.941016
SERVSTEEL INC,1,SERVSTEEL INC/MORGAN,2919.353,AEP - Air Emission Plant,40.358056,-80.125
LANGELOTH METALLURGICAL CO LLC,1,LANGELOTH METALLURGICAL CO LLC/LANGELOTH,8840.31,AEP - Air Emission Plant,40.363456,-80.400998
DOMINION ENERGY TRANS INC,1,DOMINION ENERGY TRANS INC/SOUTH OAKFORD STA,14209.08,AEP - Air Emission Plant,40.364891,-79.55874
UNIVERSAL STAINLESS & ALLOY PROD INC,1,UNIVERSAL STAINLESS & ALLOY PROD/BRIDGEVILLE,48643.6354,AEP - Air Emission Plant,40.365268,-80.097299
GAUTIER STEEL LTD,1,GAUTIER STEEL LTD/JOHNSTOWN PLT,10292.0095,AEP - Air Emission Plant,40.380562,-78.916697
TEXAS EASTERN TRANS LP,1,TEXAS EASTERN TRANS LP/DELMONT COMP STA,53238.1186,AEP - Air Emission Plant,40.383731,-79.548367
KEYSTONE CONEMAUGH PROJ LLC,1,CONEMAUGH STATION,11731059.68,AEP - Air Emission Plant,40.384722,-79.06
USA VALLEY FAC INC,1,USA VALLEY FAC INC/VALLEY LDFL,24726.0728,AEP - Air Emission Plant,40.38822,-79.67433
THE TECHS IND INC,1,GALVTECH/PGH,25905.5324,AEP - Air Emission Plant,40.389788,-79.931697
STARPRINT PUBLICATIONS INC,1,STARPRINT PUBLICATIONS INC/PORTAGE,667.1723,AEP - Air Emission Plant,40.391264,-78.665794
US STEEL CORP,1,USS CORP/EDGAR THOMSON WORKS,3303796.586,AEP - Air Emission Plant,40.393563,-79.857741
PA DHS TORRANCE STATE HOSP,1,PA DHS/TORRANCE STATE HOSP,8162.8524,AEP - Air Emission Plant,40.397839,-79.258562
DOMINION ENERGY TRANS INC,1,DOMINION ENERGY TRANS INC/OAKFORD COMPRESSOR STA,39462.9205,AEP - Air Emission Plant,40.402876,-79.559032
CHAMBERS DEV CO INC,1,CHAMBERS DEV CO INC/MONROEVILLE,44516.0777,AEP - Air Emission Plant,40.4075,-79.794444
SEWARD GENERATION LLC,1,SEWARD GENERATING STATION/SEWARD,2883102.62,AEP - Air Emission Plant,40.407933,-79.034165
UNION ELEC STEEL CORP,1,UNION ELEC STEEL CORP/HARMON CREEK,41463.6497,AEP - Air Emission Plant,40.409117,-80.407272
C & C SMITH LUMBER CO INC,1,C & C SMITH LUMBER CO/CROYLE WOOD PELLETS,6517.84,AEP - Air Emission Plant,40.417909,-78.760564
DURA BOND COATING INC,1,DURA BOND IND INC/EXPORT STEEL PLT,593.0223,AEP - Air Emission Plant,40.426411,-79.627489
SUNOCO PARTNERS MKT & TERM LP,1,SUNOCO PARTNERS M&T/DELMONT FACILITY,151.24,AEP - Air Emission Plant,40.42874,-79.574277
EQUITRANS LP,1,EQUITRANS LP/PENNVIEW,2229.4313,AEP - Air Emission Plant,40.428907,-79.138917
TEXAS EASTERN TRANS LP,1,TEXAS EASTERN TRANS LP/LILLY STA,120015.9833,AEP - Air Emission Plant,40.431361,-78.600511
TEXAS EASTERN TRANS LP,1,TEXAS EASTERN TRANS LP/ARMAGH STA,50863.2522,AEP - Air Emission Plant,40.432091,-79.083326
LINDY PAVING INC,1,LINDY PAVING INC/2ND AVE PLT,12188.1638,AEP - Air Emission Plant,40.435127,-79.972052
THE TECHS IND INC,1,METALTECH/PGH,17332.363,AEP - Air Emission Plant,40.435136,-79.969818
MAGEE WOMENS HOSP OF UPMC,1,UPMC MAGEE HOSP/MED SVC FOR WOMEN,10374.0662,AEP - Air Emission Plant,40.436111,-79.961389
DUQUESNE UNIV,1,DUQUESNE UNIVERSITY/PGH,68.3453,AEP - Air Emission Plant,40.436389,-79.993056
ENERGY CTR PGH LLC,1,ENERGY CTR PGH LLC/UPTOWN FAC,7734.8746,AEP - Air Emission Plant,40.439167,-79.986944
BELLEFIELD BOILER PLT,1,BELLEFIELD BOILER PLT/PGH,72099.6731,AEP - Air Emission Plant,40.441389,-79.949444
PPG IND CHEM TECH INFORMATION CTR,1,PPG IND/CHEM TECH CTR,3504.1941,AEP - Air Emission Plant,40.442122,-79.732379
UNIV OF PGH,1,UNIV OF PGH/PGH CAMPUS,68989.9386,AEP - Air Emission Plant,40.442778,-79.959444
PGH ALLEGHENY CNTY THERMAL LTD,1,PGH ALLEGHENY CNTY THERMAL LTD/PGH,40703.8845,AEP - Air Emission Plant,40.443302,-80.003668
REPUBLIC SVC,1,ALLIED WASTE SVC OF PA/MSW LDFL,107988.1,AEP - Air Emission Plant,40.4475,-80.274722
MAXT ASSOCIATES LP,1,RIVERS CASINO/PGH,2077.0243,AEP - Air Emission Plant,40.447778,-80.0225
MOORE WALLACE NORTH AMER INC,1,HOECHSTETTER PRINTING/COMMERCIAL LITHO PRINTING,0.009,AEP - Air Emission Plant,40.44825,-79.893731
ENERGY CTR PGH LLC,1,ENERGY CENTER PITTSBURGH LLC,40204.7966,AEP - Air Emission Plant,40.449792,-80.006471
PNC BANK NA,1,PNC BANK NATL ASSOC/PGH DATA CTR,30.9313,AEP - Air Emission Plant,40.451667,-80.189722
UPMC SHADYSIDE,1,UPMC SHADYSIDE/HOSP MED CTR,14273.0999,AEP - Air Emission Plant,40.4551,-79.9403
RIVERBEND FOODS LLC,1,RIVERBEND FOODS LLC/PGH,51542.9329,AEP - Air Emission Plant,40.455393,-79.990415
PEOPLES NATURAL GAS CO LLC,1,DOMINION PEOPLES/DICE COMP STA,2225.5975,AEP - Air Emission Plant,40.460556,-79.705
BROUDY PRINTING INC,1,BROUDY PRINTING INC/PGH,35.8053,AEP - Air Emission Plant,40.461865,-79.914158
DOMINION ENERGY TRANS INC,1,DOMINION ENERGY TRANS INC/JB TONKIN STA,11656.531,AEP - Air Emission Plant,40.463,-79.6402
LAUREL HIGHLANDS LDFL INC,1,LAUREL HIGHLANDS LAN/LAUREL HIGHLANDS LDFL,9165.849,AEP - Air Emission Plant,40.463621,-78.867429
PRESSURE CHEM CO,1,PRESSURE CHEM CO/PGH,813,AEP - Air Emission Plant,40.463887,-79.968356
EBENSBURG POWER CO,1,EBENSBURG POWER CO/EBENSBURG COGENERATION PLT,601293.119,AEP - Air Emission Plant,40.464469,-78.746045
GENON POWER MIDWEST LP,1,NRG POWER MIDWEST L.P../BRUNOT ISLE POWER PLT,24931.6353,AEP - Air Emission Plant,40.464722,-80.044722
CHILDRENS HOSP OF PGH,1,CHILDRENS HOSP OF PGH/LAWRENCEVILLE,17642.9264,AEP - Air Emission Plant,40.466497,-79.953045
TRINITY IND INC,1,STD FORGED PROD LLC/MCKEES ROCKS FORGINGS PLT 112,25469.3808,AEP - Air Emission Plant,40.477536,-80.059008
MCCONWAY & TORLEY LLC,1,MCCONWAY & TORLEY LLC/STEEL CASTINGS MFG,11768.6575,AEP - Air Emission Plant,40.478496,-79.960486
CAMBRIA COGEN I LLC,1,CAMBRIA COGEN EBENSBURG FAC,983919.41,AEP - Air Emission Plant,40.479454,-78.701897
EVERGREEN LDFL INC,1,EVERGREEN LANDFILL/FKA PELLEGRENE SITE,25636.0293,AEP - Air Emission Plant,40.486663,-79.137225
CALGON CARBON CORP,1,CALGON CARBON CORP/NEVILLE ISLAND PLT,1912.9318,AEP - Air Emission Plant,40.492029,-80.078444
LINDY PAVING INC,1,LINDY PAVING INC/NEVILLE ISLAND,12341.8204,AEP - Air Emission Plant,40.494157,-80.073618
ALLEGHENY CNTY AIRPORT AUTH,1,ALLEGHENY CNTY AIRPORT AUTH/PGH INTL AIRPORT,10475.1676,AEP - Air Emission Plant,40.498611,-80.255556
UNIVAR SOLUTIONS USA INC,1,"INEOS COMPOSITES US, LLC",15053.3669,AEP - Air Emission Plant,40.499237,-80.080953
NEVILLE CHEM CO,1,NEVILLE CHEM CO/PGH,16430.5947,AEP - Air Emission Plant,40.503449,-80.099378
US AIRWAYS,1,US AIRWAYS MAINTENANCE BASE/PGH,3120.0066,AEP - Air Emission Plant,40.503889,-80.234167
"FJ TURBINE POWER, INC",1,FJ TURBINE POWER INC,67.7069,AEP - Air Emission Plant,40.504167,-80.233333
,1,BUNTING GRAPHICS INC/VERONA,0.92,AEP - Air Emission Plant,40.50814,-79.845556
GOTTLIEB INC,1,GOTTLIEB INC/NEVILLE ISLAND,2277.6914,AEP - Air Emission Plant,40.511363,-80.131669
HOMER CITY GENERATION LP,1,HOMER CITY GEN LP/CENTER TWP,5890724.77,AEP - Air Emission Plant,40.513552,-79.196793
BUCKEYE PIPELINE CO LP,1,BUCKEYE PIPE LINE CO/CORAOPOLIS,1190.5766,AEP - Air Emission Plant,40.527059,-80.18045
PEOPLES NATURAL GAS CO LLC,1,PEOPLES GAS CO LLC/RUBRIGHT COMP STA,3260.3719,AEP - Air Emission Plant,40.527778,-79.556111
NEVILLE ISLAND TERM DE LLC,1,PGH TERM CORP/CORAOPOLIS TERM,125.2519,AEP - Air Emission Plant,40.528056,-80.181944
LEEDSWORLD INC,1,LEEDSWORLD/UPPER BURRELL,1131.308,AEP - Air Emission Plant,40.528333,-79.650556
GEORGIA FINANCIAL XIII LLC,1,GEORGIA FINANCIAL XIII LLC/AVONMORE PLT,6369.132,AEP - Air Emission Plant,40.531086,-79.46916
GENON POWER MIDWEST LP,1,NRG MIDWEST LP/CHESWICK,1421145.725,AEP - Air Emission Plant,40.536389,-79.792222
PPG IND INC,1,PPG IND INC/SPRINGDALE,12457.1943,AEP - Air Emission Plant,40.536826,-79.785659
ALLEGHENY ENERGY SUPPLY,1,ALLEGHENY ENERGY SUPPLY/SPRINGDALE,1622551.13,AEP - Air Emission Plant,40.544167,-79.767222
UNIV OF PGH APPLIED RESEARCH CTR,1,UNIV OF PGH APPLIED RESEARCH CTR/UPARC,11220.7566,AEP - Air Emission Plant,40.544722,-79.828611
INTER POWER AHLCON PARTNERS LP,1,INTER POWER AHLCON LP/COLVER POWER PROJ,1094915.23,AEP - Air Emission Plant,40.549111,-78.815973
ARCONIC INC,1,ARCONIC TECHNOLOGY CENTER/UPPER BURREL,14277.2064,AEP - Air Emission Plant,40.554837,-79.65475
REDLAND BRICK INC,1,REDLAND BRICK INC/HARMAR PLT,8074.99,AEP - Air Emission Plant,40.556502,-79.840242
KINDER MORGAN TRANSMIX CO LLC,1,KINDER MORGAN TRANSMIX/INDIANOLA PLT,25.021,AEP - Air Emission Plant,40.571774,-79.862776
HUSSEY COPPER LTD,1,LIBERTAS COPPER LLC/LEETSDALE,26554.8852,AEP - Air Emission Plant,40.573333,-80.222778
PASSAVANT HOSP,1,UPMC PASSAVANT HOSP/MCCANDLESS,8803.1162,AEP - Air Emission Plant,40.573611,-80.012222
PEOPLES NATURAL GAS CO LLC,1,PEOPLES NATURAL GAS CO LLC/ROARING RUN STA,2205.6699,AEP - Air Emission Plant,40.576001,-79.500625
CREPS UNITED PUBLICATIONS,1,CREPS UNITED PUBLICATIONS/WINDY RIDGE IND PARK,2371.763,AEP - Air Emission Plant,40.588889,-79.201944
ATI FLAT ROLLED PROD HOLDINGS LLC,1,ATI FLAT ROLLED PRODUCTS HOLDINGS LLC/VANDERGRIFT,52107.067,AEP - Air Emission Plant,40.605324,-79.57319
ALLEGHENY LUDLUM LLC,1,"ATI FLAT ROLLED PRODUCTS HOLDINGS, LLC/BRACKENRIDGE",137983.3834,AEP - Air Emission Plant,40.60852,-79.72701
PA STATE SYS OF HIGHER ED INDIANA UNIV,1,PA STATE SYS OF HIGHER ED/INDIANA UNIV,26237.371,AEP - Air Emission Plant,40.616798,-79.157492
SPECIALTY TIRES OF AMER INC,1,SPECIALTY TIRES AMER/INDIANA PLT,10288.384,AEP - Air Emission Plant,40.617549,-79.170711
HANOVER WIRE CLOTH DIV OF CCX INC,1,CCX INC/BRAEBURN ALLOY STEEL,10176.515,AEP - Air Emission Plant,40.618056,-79.7125
ENERGY HARBOR GENERATION LLC,1,ENERGY HARBOR GENERATION LLC/BEAVER VLY,602.4386,AEP - Air Emission Plant,40.623,-80.432
NGC IND LLC,1,NGC INDUSTRIES/SHIPPINGPORT,82646.766,AEP - Air Emission Plant,40.624998,-80.416663
US GYPSUM CO,1,US GYPSUM CO/ALIQUIPPA,52606.2,AEP - Air Emission Plant,40.6278,-80.2389
WHEMCO STEEL CASTINGS INC,1,WHEMCO/MIDLAND,6996.02,AEP - Air Emission Plant,40.630885,-80.444848
MPLX TERMINALS LLC,1,MPLX TERMINALS LLC/MIDLAND TERMINAL,20.6215,AEP - Air Emission Plant,40.63113,-80.439643
ENERGY HARBOR GENERATION LLC,1,ENERGY HBR GENERATION LLC/BRUCE MANSFIELD PLT,3574318.235,AEP - Air Emission Plant,40.634366,-80.419987
ARMSTRONG POWER LLC,1,ARMSTRONG POWER/S BEND,299102.2982,AEP - Air Emission Plant,40.63755,-79.35136
DOMINION ENERGY TRANS INC,2,DOMINION ENERGY TRANS INC/SOUTH BEND STA,11748.3518,AEP - Air Emission Plant,40.63765,-79.35723
ALLEGHENY & TSINGSHAN STAINLESS LLC,1,ALLEGHENY & TSINGSHAN STAINLESS LLC MIDLAND FAC,15897.33,AEP - Air Emission Plant,40.638709,-80.460984
SH BELL CO,1,SH BELL CO/OHIOVILLE,0.34,AEP - Air Emission Plant,40.640278,-80.523333
NOVA CHEM INC,1,NOVA CHEM CO/BEAVER,42513.2414,AEP - Air Emission Plant,40.653847,-80.355945
KEYSTONE CONEMAUGH PROJ LLC,1,KEYSTONE STATION,12682491.15,AEP - Air Emission Plant,40.66022,-79.341772
BASF CORP,1,BASF CORP/MONACA PLT,15082.41,AEP - Air Emission Plant,40.660456,-80.345827
ANCHOR HOCKING LLC,1,ANCHOR HOCKING LLC/MONACA PLT,45077.3963,AEP - Air Emission Plant,40.689892,-80.281395
KAWNEER COMMERCIAL WINDOWS LLC,1,KAWNEER COMMERCIAL WINDOWS LLC/CRANBERRY TWP,6350.6895,AEP - Air Emission Plant,40.703399,-80.112218
CUE INC,1,CUE INC/CRANBERRY TWP PLT,916.6546,AEP - Air Emission Plant,40.709723,-80.102782
PEOPLES NATURAL GAS CO LLC,1,PEOPLES GAS CO LLC/KINTER STA,3379.538,AEP - Air Emission Plant,40.713464,-79.080605
REPAREX FABRICATED SYS,1,RPX COMPOSITES/GREEN TWP,1,AEP - Air Emission Plant,40.716111,-78.8675
PEOPLES NATURAL GAS CO LLC,1,PEOPLES NATURAL GAS/CROOKED CREEK COMP STA,1183.5633,AEP - Air Emission Plant,40.717296,-79.53191
NCI BLDG SYS INC,1,NCI BLDG SYS INC/AMBRIDGE,8787.5973,AEP - Air Emission Plant,40.722239,-80.200059
VORTEQ COIL FINISHERS LLC,1,VORTEQ COIL FINISHERS/VALENCIA PLT,11256.8,AEP - Air Emission Plant,40.724489,-79.932552
DOMINION ENERGY TRANS INC,1,DOMINION TRANS INC/CHERRY TREE STA,2100.0795,AEP - Air Emission Plant,40.75455,-78.82825
PENN UNITED TECH INC,1,PENN UNITED TECH/CARBIDE GROUP,199.2886,AEP - Air Emission Plant,40.754786,-79.815385
PEOPLES NATURAL GAS CO LLC,1,PEOPLES NATURAL GAS CO/SHOEMAKER STA,4864.9388,AEP - Air Emission Plant,40.75554,-79.550023
PEOPLES NATURAL GAS CO LLC,1,PEOPLES NATURAL GAS CO/ATWOOD BOOSTER STA,592.1367,AEP - Air Emission Plant,40.757345,-79.269232
LINDY PAVING INC,1,LINDY PAVING INC/ZELIENOPLE PLT,5226.4288,AEP - Air Emission Plant,40.760985,-80.114888
BEAVER FALLS TUBULAR PRODUCTS LLC,1,BEAVER FALLS TUBULAR PRODLLC/BEAVER FALLS PLT,11134.27,AEP - Air Emission Plant,40.781167,-80.332917
THE SHERWIN WILLIAMS MFG CO,1,THE SHERWIN WILLIAMS CO/ROCHESTER PLT,4150.1,AEP - Air Emission Plant,40.78331,-80.266642
PEOPLES NATURAL GAS CO LLC,1,PEOPLES NATURAL GAS CO/VILLAGE STA,782.3098,AEP - Air Emission Plant,40.78497,-79.340805
PEOPLES NATURAL GAS CO LLC,1,PEOPLES NATURAL GAS CO LLC/VALLEY STA,11073.8101,AEP - Air Emission Plant,40.791182,-79.365777
BNZ MATERIALS INC,1,BNZ MATERIALS INC/ZELIENOPLE,660.53,AEP - Air Emission Plant,40.791961,-80.148968
ARMSTRONG CEMENT & SUPPLY CORP,1,ARMSTRONG CEMENT & SUPPLY/WINFIELD,177591.8,AEP - Air Emission Plant,40.794804,-79.700174
SENECA LDFL INC,1,SENECA LANDFILL INC/SENECA,39964.7755,AEP - Air Emission Plant,40.811942,-80.078607
DOMINION ENERGY TRANS INC,1,DOMINION TRANS INC/BEAVER,529.7854,AEP - Air Emission Plant,40.8177,-80.3043
AK STEEL CORP,1,AK STEEL CORP/BUTLER WORKS,338662.69,AEP - Air Emission Plant,40.829262,-79.942733
IPSCO KOPPEL TUBULARS LLC,1,IPSCO KOPPEL TUBULARS LLC/KOPPEL PLT,36662.7605,AEP - Air Emission Plant,40.835606,-80.318371
IPSCO KOPPEL TUBULARS LLC,1,IPSCO KOPPEL TUBULARS LLC/AMBRIDGE,65626.115,AEP - Air Emission Plant,40.835967,-80.318486
LINDY PAVING INC,1,LINDY PAVING INC/KOPPEL FAC,5896.4238,AEP - Air Emission Plant,40.840497,-80.365711
NALCO PROD LLC,1,NALCO PROD LLC/NORTH SOUTH PLT,5323.83,AEP - Air Emission Plant,40.851151,-80.274353
INMETCO LLC,1,INMETCO/ELLWOOD CITY,51034.6676,AEP - Air Emission Plant,40.857691,-80.276263
ELLWOOD CITY FORGE,1,ELLWOOD CITY FORGE/ELLWOOD CITY,22684.5071,AEP - Air Emission Plant,40.860682,-80.293791
EAGLE PRINTING CO,1,EAGLE PRINTING CO/PROD CTR,2.6522,AEP - Air Emission Plant,40.8666,-79.9
BUTLER COLOR PRESS,1,BUTLER COLOR PRESS/BUTLER,1350.15,AEP - Air Emission Plant,40.866909,-79.87521
UNIVERSAL REFRACTORIES INC,1,UNIVERSAL REFRACTORI/WAMPUM,4201.0795,AEP - Air Emission Plant,40.890704,-80.343446
DOMINION ENERGY TRANS INC,1,DOMINION TRANS INC/ROCHESTER MILLS,2747.6388,AEP - Air Emission Plant,40.905372,-79.024253
NEW CASTLE POWER LLC,1,NEW CASTLE GENERATING STATION,300854.1575,AEP - Air Emission Plant,40.937955,-80.367924
PEOPLES NATURAL GAS CO LLC,1,PEOPLES NATURAL GAS CO/FISHER STA,1793.0545,AEP - Air Emission Plant,40.954661,-79.244319
ELLWOOD QUALITY STEELS CO,1,ELLWOOD QUALITY STEELS CO/NEW CASTLE PLT,42026.1774,AEP - Air Emission Plant,40.991756,-80.350797
ELLWOOD MILL PROD CO,1,ELLWOOD MILL PROD CO/NEW CASTLE,39710.7921,AEP - Air Emission Plant,40.993306,-80.347023
CALUMET KARNS CITY REF LLC,1,CALUMET KARNS CITY REF LLC/KARNS CITY,35520.545,AEP - Air Emission Plant,40.996056,-79.725119
SONNEBORN LLC,1,SONNEBORN INC/PETROLIA PLT,150525.22,AEP - Air Emission Plant,41.012639,-79.717783
INDSPEC CHEM CORP,1,INDSPEC CHEM CORP/PETROLIA,69.6068,AEP - Air Emission Plant,41.018305,-79.716959
LINDY PAVING INC,1,LINDY PAVING/HILLSVILLE ASPHALT PLT,2542.052,AEP - Air Emission Plant,41.019412,-80.500828
PA STATE SYS OF HIGHER ED SLIPPERY ROCK UNIV,1,PA STATE SYS OF HIGHER ED/SLIPPERY ROCK UNIV PA,11296.1829,AEP - Air Emission Plant,41.059816,-80.049962
WASTE MGMT DSPL SVC OF PA INC,1,WASTE MGMT DSPL SVC/NORTHWEST SANI LDFL,11116.02,AEP - Air Emission Plant,41.083323,-79.916766
GROVE CITY COLL,1,GROVE CITY COLL/GROVE CITY,6328.4285,AEP - Air Emission Plant,41.154388,-80.08173
WABTEC US RAIL INC,1,GE TRANS GROVE CITY ENGINE,12379.349,AEP - Air Emission Plant,41.168353,-80.108083
WABTEC US RAIL INC,1,GE TRANS GROVE CITY REMANUFACTURING,826.8177,AEP - Air Emission Plant,41.168639,-80.066083
HERMITAGE MUNI AUTH MERCER CNTY,1,HERMITAGE MUNI AUTH/HERMITAGE WPCP,2695.0925,AEP - Air Emission Plant,41.192983,-80.470083
CHAMPION CARRIER CORP,1,CHAMPION CARRIER CORP/HERMITAGE,1430.19,AEP - Air Emission Plant,41.194567,-80.468733
JOHN MANEELY CO DBA WHEATLAND TUBE CO,1,WHEATLAND TUBE CO DI/WHEATLAND TUBE DIV,58.2792,AEP - Air Emission Plant,41.19486,-80.493774
LINDY PAVING INC,1,LINDY PAVING/WHEATLAND ASPHALT PLT,4049.084,AEP - Air Emission Plant,41.198508,-80.504121
CCL CONTAINER HERMITAGE INC,1,CCL CONTAINER/ADVANCED MONOBLOC AEROSOL DIV,9662.5118,AEP - Air Emission Plant,41.198857,-80.481101
WHEATLAND TUBE LLC,1,SHARON TUBE CO/CHURCH ST PLT,20386.9095,AEP - Air Emission Plant,41.203056,-80.502222
TOP GUN INVESTMENT CORP II,1,NLMK PENNSYLVANIA LLC/FARRELL PLT,211803.5866,AEP - Air Emission Plant,41.212945,-80.509738
NLMK PA CORP,1,SHARON COATING LLC/SHARON,40786.605,AEP - Air Emission Plant,41.236881,-80.50395
KINDER MORGAN INC,1,TENNESSEE GAS PIPELINE CO LLC/MERCER STA 219,39089.1158,AEP - Air Emission Plant,41.26755,-80.274143
METAL LITHO & LAMINATING LLC,1,DBA SELECT METAL LITHO GREENVILLE,1590.87,AEP - Air Emission Plant,41.351353,-80.404943
SALEM TUBE INC,1,SALEM TUBE INC/GREENVILLE REYNOLDS IND PK,2440.2314,AEP - Air Emission Plant,41.355528,-80.411241
GREENVILLE METALS INC,1,GREENVILLE METALS INC/TRANSFER,3539.7328,AEP - Air Emission Plant,41.358563,-80.405833
HODGE FOUNDRY INC,1,HODGE FOUNDRY/GREENVILLE,395.0208,AEP - Air Emission Plant,41.399968,-80.35007
CNX GAS CO LLC,1,CNX GAS CO LLC/COMP STA 15,926.257,CompressorStation,39.72156,-80.37863
DIVERSIFIED OIL & GAS LLC,1,DIVERSIFIED OIL & GAS LLC/RYAN COMPRESSOR STA,891.1846,CompressorStation,39.721944,-79.649167
LPR ENERGY LLC,1,LPR ENERGY LLC/HENRY CLAY COMPRESSOR,33.7977,CompressorStation,39.722717,-79.505132
COLUMBIA GAS TRANS,1,COLUMBIA GAS TRANS CORP/SALISBURY COMP STA,16425.52,CompressorStation,39.723,-79.008
LPR MIDSTREAM PARTNERS LLC,1,PMG ALLEN MIDSTREAM FAC,535.3766,CompressorStation,39.725339,-79.350936
REGENCY NEPA GAS GATHERING LLC,1,PVR NEPA GAS GATHERING LLC/GREENE CNTY SOUTH COMP STA,3426.928,CompressorStation,39.734175,-80.327667
INR OPR LLC,1,INR OPERATING LLC/WEST SUMMIT COMP STA,2823.9776,CompressorStation,39.73437,-79.80091
EQUITRANS LP,1,EQUITRANS LP/MT MORRIS COMP STA,0.3556,CompressorStation,39.73903,-80.066366
CNX GAS CO LLC,1,CNX GAS CO LLC/ CNX 14,744.504,CompressorStation,39.739772,-80.353493
EQM POSEIDON MIDSTREAM LLC,1,EQM POSEIDON MIDSTREAM/CYGRYMUS COMP STA,8322.4368,CompressorStation,39.740569,-80.394489
LAUREL MTN MIDSTREAM OPR LLC,1,LAUREL MTN MIDSTREAM OPR LLC/SPRINGHILL COMP STA,6476.1276,CompressorStation,39.751111,-79.8731
CNX GAS CO LLC,1,CNX GAS CO LLC/CNX 8,2.615,CompressorStation,39.75113,-80.36784
CNX GAS CO LLC,1,CNX GAS CO LLC / PINEBANK,4593.096,CompressorStation,39.758333,-80.318056
CNX GAS CO LLC,1,CNX GAS CO LLC/ CNX 10,1854.757,CompressorStation,39.76296,-80.40634
CNX GAS CO LLC,1,CNX GAS CO LLC/ CNX 25,0.529,CompressorStation,39.76452,-80.42405
CNX GAS CO LLC,1,CNX GAS CO LLC/BOOSTER STA 1,2.619,CompressorStation,39.766667,-80.321667
CNX GAS CO LLC,1,CNX GAS CO LLC/CNX 11,1201.083,CompressorStation,39.7708,-80.2514
CNX GAS CO LLC,1,CNX GAS CO LLC/ BOOSTER 13,1854.74,CompressorStation,39.7847,-80.33022
LAUREL MTN MIDSTREAM OPR LLC,1,LAUREL MTN MIDSTREAM OPR LLC/BROWN COMP STA,26571.3851,CompressorStation,39.803333,-80
RANGE RESOURCES APPALACHIA LLC,1,RANGE RESOURCES APPALACHIA/APTED COMP STA,2442.8241,CompressorStation,39.810556,-80.006944
ENERGY CORP OF AMER,1,VECCHIO COMP STA,602.1097,CompressorStation,39.825556,-80.039444
COAL GAS RECOVERY II LLC,1,CONTURA PENNSYLVANIA LAND LLC/DYERS FORK PLT,6771.6551,CompressorStation,39.836111,-80.128611
DIVERSIFIED PROD LLC,1,ALLIANCE PETRO LLC / GORDON HILL,217.8037,CompressorStation,39.847788,-80.152138
GREYLOCK MIDSTREAM LLC,1,GREYLOCK MIDSTREAM LLC/VERES COMP STA,17689.7984,CompressorStation,39.856111,-80.086667
REGENCY MARCELLUS GAS GATHERING LLC,1,REGENCY MARCELLUS GAS GATHERING/MILESKY COMP STA,2020.672,CompressorStation,39.859725,-80.241833
EQUITRANS LP,1,EQUITRANS LP/ROGERSVILLE COMP STA,7376.5249,CompressorStation,39.877296,-80.266736
GREYLOCK MIDSTREAM LLC,1,GREYLOCK MIDSTREAM LLC/CUMBERLAND HENDERSON COMP STA,14882.0154,CompressorStation,39.884733,-80.025833
EQM POSEIDON MIDSTREAM LLC,1,EQM POSEIDON MIDSTREAM/PETTIT COMP STA,35685.8425,CompressorStation,39.888056,-80.371389
EQUITRANS LP,1,EQUITRANS/WAYNESBURG PLT,8293.0163,CompressorStation,39.891642,-80.183365
EQM POSEIDON MIDSTREAM LLC,1,EQM POSEIDON MIDSTREAM/WIND RIDGE COMP STA,1924.0296,CompressorStation,39.895833,-80.4375
COLUMBIA GAS TRANS,1,COLUMBIA GAS TRANS CORP/WAYNESBURG COMP STA,28631.48,CompressorStation,39.896389,-80.216389
CNX MIDSTREAM OPR CO LLC,1,CNX MIDSTREAM OPR CO LLC/MCQUAY COMP STA,3445.102,CompressorStation,39.898611,-80.290278
NATL FUEL GAS SUPPLY CORP,1,NATL FUEL GAS SUPPLY CORP / HOLBROOK INTERCONNECT,24.0746,CompressorStation,39.9,-80.447222
GREYLOCK MIDSTREAM LLC,1,GREYLOCK MIDSTREAM LLC/KUHL-SKIB COMP STA,19100.9565,CompressorStation,39.905278,-80.070556
CNX GAS CO LLC,1,CNX GAS CO LLC/GREEN HILL PROC PLT,253.887,CompressorStation,39.906944,-80.264444
EQM GATHERING OPCO LLC,1,EQM GATHERING OPCO LLC/HALO COMP STA,53276.4562,CompressorStation,39.90729,-80.31542
EQM POSEIDON MIDSTREAM LLC,1,EQM POSEIDON MIDSTREAM/TEN MILE COMP STA,11953.7228,CompressorStation,39.908433,-80.140461
CNX MIDSTREAM OPR CO LLC,1,CNX MIDSTREAM OPR CO LLC/GH6 RUSH RUN COMP STA,15131.129,CompressorStation,39.908611,-80.274444
EQUITRANS LP,1,EQUITRANS LP/JEFFERSON COMP STA,46501.2465,CompressorStation,39.909167,-80.075278
EQUITRANS LP,1,EQUITRANS INC/PRATT COMP STA,18818.1868,CompressorStation,39.912472,-80.128302
EQM POSEIDON MIDSTREAM LLC,1,EQM POSEIDON MIDSTREAM/PATTON COMP STA,2069.1324,CompressorStation,39.914044,-80.245067
LAUREL MTN MIDSTREAM OPR LLC,1,LAUREL MTN MIDSTREAM OPR LLC/CANTARAL COMP STA,43028.2736,CompressorStation,39.916419,-80.222056
LAUREL MTN MIDSTREAM OPR LLC,1,LAUREL MTN MIDSTREAM OPR LLC/PRAH COMP STA,5687.9886,CompressorStation,39.916422,-79.865258
EQM GATHERING OPCO LLC,1,EQM GATHERING OPCO LLC/HOPEWELL RIDGE INTERCONNECT STA,7668.993,CompressorStation,39.917778,-80.288611
CNX MIDSTREAM OPR CO LLC,1,CNX MIDSTREAM OPR CO LLC/HOPEWELL STATION,49335.838,CompressorStation,39.917778,-80.293056
LAUREL MTN MIDSTREAM OPR LLC,1,LAUREL MTN MIDSTREAM OPR LLC/SHAMROCK COMP STA,66771.9446,CompressorStation,39.918333,-79.825
LAUREL MTN MIDSTREAM OPR LLC,1,LAUREL MTN MIDSTREAM OPR LLC/DAVIS COMP STA,6850.7645,CompressorStation,39.919522,-80.024145
EQM GATHERING OPCO LLC,1,EQM GATHERING OPCO LLC/EUROPA COMP STA,18666.5007,CompressorStation,39.929694,-80.296
DIVERSIFIED PROD LLC,1,ALLIANCE PETROLEUM CORP/ECKHARDT COMP STA,430.5998,CompressorStation,39.933333,-79.268611
CNX GAS CO LLC,1,CNX GAS CO LLC / KINGSBRIDGE,0,CompressorStation,39.933403,-79.269599
RANGE RESOURCES APPALACHIA LLC,1,APOLLO RESOURCES LLC/VOYTEK COMP STA,935.5903,CompressorStation,39.935,-79.8
LPR MIDSTREAM PARTNERS LLC,1,MILLER CONNECT COMPRESSOR STA,2029.8183,CompressorStation,39.936111,-79.228611
MTN GATHERING LLC,1,MTN GATHERING/HALL COMP STA,6.93,CompressorStation,39.9375,-79.469444
RANGE RESOURCES APPALACHIA LLC,1,APOLLO RESOURCES LLC/SGL 51 COMP STA,583.6482,CompressorStation,39.939167,-79.5389
EQM GATHERING OPCO LLC,1,EQM GATHERING OPCO LLC/CALLISTO COMP STA,91178.9561,CompressorStation,39.941389,-80.264444
CONE GATHERING LLC,1,CONE GATHERING LLC/MORRIS DEHY STATION,39348.918,CompressorStation,39.947222,-80.371667
EQM GATHERING OPCO LLC,1,EQM GATHERING OPCO LLC/IO COMP STA,53591.3584,CompressorStation,39.955556,-80.130278
CNX GAS CO LLC,1,CNX GAS CO LLC/ IAMS COMP STA,3787.032,CompressorStation,39.96149,-80.2851
EQM GATHERING OPCO LLC,1,EQM GATHERING OPCO LLC/JUPITER COMP STA,64880.7202,CompressorStation,39.967222,-80.110917
EQM GATHERING OPCO LLC,1,EQM GATHERING OPCO LLC/PIPERS RIDGE INTERCONNECT,6949.7662,CompressorStation,39.971944,-80.124722
LAUREL MTN MIDSTREAM OPR LLC,1,LAUREL MTN MIDSTREAM OPR LLC/DUNBAR COMP STA,5851.5384,CompressorStation,39.975576,-79.662295
CNX GAS CO LLC,1,CNX GAS CO LLC/DEER LICK COMP STA,5723.559,CompressorStation,39.984722,-80.286111
EQM GATHERING OPCO LLC,1,EQM GATHERING OPCO LLC/STEELHEAD COMP STA,1970.5274,CompressorStation,40.012622,-80.1178
DIVERSIFIED PROD LLC,1,ALLIANCE PETROLEUM CORP/KENNEDY COMP STA,144.1283,CompressorStation,40.013889,-79.653889
EQT CORP,1,EQT GATHERING LLC/AMITY INTERCONNECT STA,139.7762,CompressorStation,40.024,-80.163111
MTN GATHERING LLC,1,MTN GATHERING/ADAMS COMP STA,6074.14,CompressorStation,40.030833,-79.644167
CHEVRON APPALACHIA LLC,1,CHEVRON APPALACHIA LLC/DEEMSTON WICKS COMP STA,4087.4674,CompressorStation,40.031013,-80.019956
CNX MIDSTREAM OPR CO LLC,1,CNX MIDSTREAM OPR CO LLC/NV-57 COMP STA,13021.8,CompressorStation,40.032117,-80.318903
MTN GATHERING LLC,1,MTN GATHERING LLC/MILLS,180.8692,CompressorStation,40.03468,-79.707333
KEYROCK ENERGY LLC,1,KEYROCK ENERGY LLC/CONNELSVILLE COMP STA,287.316,CompressorStation,40.03491,-79.64521
KRIEBEL MINERALS INC,1,KRIEBEL MINERALS/WEAVER CENTERVILLE STA,1258.8769,CompressorStation,40.043958,-80.040163
EQM GATHERING OPCO LLC,1,EQM GATHERING OPCO LLC/MAKO COMP STA,106678.2472,CompressorStation,40.062219,-80.203369
MTN V OIL & GAS INC,1,MTN V OIL & GAS/HIXENBAUGH COMP,366.0213,CompressorStation,40.062222,-80.1175
LAUREL MTN MIDSTREAM OPR LLC,1,LAUREL MTN MIDSTREAM OPR LLC/PRITTS COMP STA,3879.8013,CompressorStation,40.06628,-79.6337
EQM POSEIDON MIDSTREAM LLC,1,EQM POSEIDON MIDSTREAM/BLUE MOON COMP STA,133400.0069,CompressorStation,40.0775,-79.9975
MARKWEST LIBERTY MIDSTREAM & RESOURCES LLC,1,MARKWEST LIBERTY MIDSTREAM/BAKER COMP STA,24789.2704,CompressorStation,40.080556,-80.222778
RANGE RESOURCES APPALACHIA LLC,1,APOLLO RESOURCES LLC/RUMBAUGH COMP STA,3162.4371,CompressorStation,40.08467,-79.63655
EQM POSEIDON MIDSTREAM LLC,1,EQM POSEIDON MIDSTREAM/TWILIGHT COMP STA,39485.272,CompressorStation,40.101269,-79.9944
EQM POSEIDON MIDSTREAM LLC,1,EQM POSEIDON MIDSTREAM/KRYPTONITE COMP STA,42833.0203,CompressorStation,40.101706,-80.174953
MARKWEST LIBERTY MIDSTREAM & RESOURCES LLC,1,MARKWEST LIBERTY MIDSTREAM/ CARPENTER COMP STA,66084.4771,CompressorStation,40.1025,-80.479167
DIVERSIFIED PROD LLC,1,ALLIANCE PETROLEUM CORP/CALIFORNIA COMP STA,1297.0469,CompressorStation,40.106198,-79.942621
RANGE RESOURCES APPALACHIA LLC,1,RANGE RESOURCES APPALACHIA/LAYMAN COMP STA,1826.1318,CompressorStation,40.108605,-79.635912
UGI GIBRALTAR GATHERING LLC,1,UGI GIBRALTAR GATHERING LLC/GIBRALTAR COMP STA,855.55,CompressorStation,40.109444,-80.445556
MARKWEST LIBERTY MIDSTREAM & RESOURCES LLC,1,MARKWEST LIBERTY M&R/TUPTA DAY COMP STA,16492.4065,CompressorStation,40.112222,-80.223333
KEYROCK ENERGY LLC,1,KEYROCK ENERGY LLC/HRIBAL COMP STA,463.203,CompressorStation,40.135319,-79.565322
MARKWEST LIBERTY MIDSTREAM & RESOURCES LLC,1,MARKWEST LIBERTY MIDSTREAM & RESOURCES/REDD COMP STA,5554.8006,CompressorStation,40.142939,-80.198739
COLUMBIA GAS TRANS,1,COLUMBIA GAS TRANS LLC/REDD FARM COMP STA,17622.82,CompressorStation,40.145,-80.203889
NATL FUEL GAS SUPPLY CORP,1,NATL FUEL SUPPLY CORP/BUFFALO COMP STA,4587.4757,CompressorStation,40.158611,-80.343611
MARKWEST LIBERTY MIDSTREAM & RESOURCES LLC,1,MARKWEST LIBERTY MID & RES / HOSKINS BOOSTER COMP STA,13928.1951,CompressorStation,40.18,-80.411389
KRIEBEL MINERALS INC,1,KRIEBEL MINERALS INC/LYNN COMP STA,1543.3711,CompressorStation,40.181975,-79.5535
K PETROLEUM INC,1,K PETROLEUM INC/HACKETT COMP STA,1487.8524,CompressorStation,40.185,-80.008333
MARKWEST LIBERTY MIDSTREAM & RESOURCES LLC,1,MARKWEST LIBERTY MIDSTREAM/WELLING COMP STA,52540.5374,CompressorStation,40.188889,-80.358889
EQUITRANS LP,1,EQUITRANS LP/GINGER HILL SITE,1484.1099,CompressorStation,40.19267,-80.01553
KRIEBEL MINERALS INC,1,KRIEBEL MINERALS INC / ROSTRAVER RT 51 COMPRESSOR,1576.3486,CompressorStation,40.212472,-79.879731
DIVERSIFIED PROD LLC,1,ALLIANCE PETROLEUM CORP/SILVIS COMP STA,225.2222,CompressorStation,40.222714,-79.552834
KEYROCK ENERGY LLC,1,KEYROCK ENERGY LLC/UNITY COMP STA,783.3905,CompressorStation,40.225052,-79.510917
PEOPLES NATURAL GAS CO LLC,1,AVC/WALL COMPRESSOR STA,817.5897,CompressorStation,40.229444,-79.881111
DIVERSIFIED PROD LLC,1,ALLIANCE PETRO CO LLC/CONEMAUGH COMP STA,490.1219,CompressorStation,40.229484,-79.098138
LAUREL MTN MIDSTREAM OPR LLC,1,LAUREL MTN MIDSTREAM OPR LLC/HERMINIE COMP STA,25734.9385,CompressorStation,40.23655,-79.7575
MARKWEST LIBERTY MIDSTREAM & RESOURCES LLC,1,MARKWEST LIBERTY MIDSTREAM & RESOURCES/SHAW COMP STA,30232.9987,CompressorStation,40.237778,-80.282222
MARKWEST LIBERTY MIDSTREAM & RESOURCES LLC,1,MARKWEST LIBERTY MIDSTREAM/DRYER BOOSTER COMP STA,13187.6545,CompressorStation,40.24,-80.471944
EQUITABLE GATHERING LP,1,EQT GATHERING LLC / APPLEGATE COMPRESSOR STA,1694.7282,CompressorStation,40.242778,-79.918056
MARKWEST LIBERTY MIDSTREAM & RESOURCES LLC,1,MARKWEST LIBERTY MIDSTREAM & RESOURCES/LOWRY COMP STA,16176.9755,CompressorStation,40.243889,-80.364722
MARKWEST LIBERTY MIDSTREAM & RESOURCES LLC,1,MARKWEST LIBERTY MIDSTREAM & RESOURCES/GODWIN COMP STA,23881.5325,CompressorStation,40.245,-80.307778
PEOPLES NATURAL GAS CO LLC,1,PEOPLES NATURAL GAS/ARMBRUST COMP STA,419.8124,CompressorStation,40.256111,-79.553333
EQM GATHERING OPCO LLC,1,EQM GATHERING OPCO LLC/MCINTOSH COMP STA,25868.5675,CompressorStation,40.25841,-79.95922
MARKWEST LIBERTY MIDSTREAM & RESOURCES LLC,1,MARKWEST LIBERTY MIDSTREAM & RESOURCES/HOUSTON GAS PLT,187395.9316,CompressorStation,40.262113,-80.254966
COLUMBIA GAS TRANS,1,COLUMBIA GAS TRANS CORP/DONEGAL COMP STA,5026.31,CompressorStation,40.269471,-80.433348
MARKWEST LIBERTY MIDSTREAM & RESOURCES LLC,1,MARKWEST LIBERTY MIDSTREAM & RESOURCES/JOHNSTON COMP STA,23979.9837,CompressorStation,40.276111,-80.233611
EQUITRANS LP,1,EQUITRANS LP / TEPE STA,515.5356,CompressorStation,40.281389,-79.917222
MARKWEST LIBERTY MIDSTREAM & RESOURCES LLC,1,MARKWEST LIBERTY MIDSTREAM & RESOURCES/NANCY STEWART,26965.547,CompressorStation,40.282778,-80.349444
MARKWEST LIBERTY MIDSTREAM & RESOURCES LLC,1,MARKWEST LIBERTY MIDSTREAM & RESOURCES/FULTON BOOSTER STA,19048.0253,CompressorStation,40.285,-80.300556
MARKWEST LIBERTY MIDSTREAM & RESOURCES LLC,1,MARKWEST LIBERTY MIDSTREAM/BRIGICH COMP STA,25575.9402,CompressorStation,40.291857,-80.239002
DIVERSIFIED PROD LLC,1,ALLIANCE PETROLEUM BEAVER ROAD,1836.0966,CompressorStation,40.295684,-79.627667
CNX GAS CO LLC,1,CNX GAS CO LLC/ TROY COMP STA,0,CompressorStation,40.299307,-79.459325
MARKWEST LIBERTY MIDSTREAM & RESOURCES LLC,1,MARKWEST/THREE BROTHERS COMP STA,68738.9347,CompressorStation,40.331944,-80.378333
EQUITRANS LP,1,EQUITRANS LP/W FAIRFIELD COMP STA,1.1865,CompressorStation,40.333333,-79.116667
RW GATHERING LLC,1,RW GATHERING LLC/ECKER BERGMAN RD COMP STA,4056.9932,CompressorStation,40.353333,-79.302778
TEXAS KEYSTONE INC,1,TEXAS KEYSTONE INC/MURPHY COMP STA,563.6436,CompressorStation,40.354253,-79.112308
PEOPLES NATURAL GAS CO LLC,1,PEOPLES NATURAL GAS CO/ARNOLD COMP STA,3391.324,CompressorStation,40.3623,-79.4316
LAUREL MTN MIDSTREAM OPR LLC,1,LAUREL MTN MIDSTREAM OPR LLC/SALEM COMP STA,997.9866,CompressorStation,40.378194,-79.492917
MARKWEST LIBERTY MIDSTREAM & RESOURCES LLC,1,MARKWEST/IMPERIAL CIBUS RANCH COMP STA,8651.9963,CompressorStation,40.380278,-80.284444
RE GAS DEV LLC,1,RE GAS DEV/ORGOVAN COMP STA,529.5514,CompressorStation,40.385694,-79.401944
COLUMBIA GAS TRANS,1,COLUMBIA GAS TRANS CORP/DELMONT COMP STA,2093.0044,CompressorStation,40.38708,-79.563846
RW GATHERING LLC,1,RW GATHERING LLC/SALEM COMP STA,6436.056,CompressorStation,40.390833,-79.336111
MARKWEST LIBERTY MIDSTREAM & RESOURCES LLC,1,MARKWEST LIBERTY MIDSTREAM & RESOURCES/HARMON CREEK GAS PLT,1754.2263,CompressorStation,40.401217,-80.357286
DOMINION ENERGY TRANS INC,1,DOMINION ENERGY TRANS INC/ROCK SPRINGS COMP STA,1275.3016,CompressorStation,40.405169,-79.554625
ETC NORTHEAST PIPELINE LLC,1,ETC NORTHEAST PIPELINE/REVOLUTION CRYO PLT,862.016,CompressorStation,40.411944,-80.349167
ROVER PIPELINE LLC,1,ROVER PIPELINE LLC/BULGER COMP STA,0.914,CompressorStation,40.413503,-80.355317
EQUITRANS LP,1,EQUITRANS LP/RAGER MTN LAUREL RIDGE STA,15580.483,CompressorStation,40.415188,-78.928593
MARKWEST LIBERTY MIDSTREAM & RESOURCES LLC,1,MARKWEST LIBERTY MIDSTREAM/SMITH COMP STA,65115.4125,CompressorStation,40.417778,-80.356667
LAUREL MTN MIDSTREAM OPR LLC,1,LAUREL MTN MIDSTREAM OPR LLC/CLYDE COMP STA,1549.2564,CompressorStation,40.43224,-79.07692
DIVERSIFIED PROD LLC,1,ALLIANCE PETROLEUM CORP/BESSIE 8 COMP STA,1458.8301,CompressorStation,40.436125,-78.939986
DIVERSIFIED PROD LLC,1,ALLIANCE PETROLEUM CORP/ERNEST COMP STA,414.2707,CompressorStation,40.4675,-79.154
HUNTLEY & HUNTLEY INC,1,D & B GAS PROD LLC/BOARST COMP STA,0,CompressorStation,40.468611,-79.641667
MTN GATHERING LLC,1,MTN GATHERING LLC/10078 MAINLINE COMP STA,147.1838,CompressorStation,40.470833,-79.65
DIVERSIFIED PROD LLC,1,ALLIANCE PETROLEUM CORP/DILLTOWN COMP STA,2465.0574,CompressorStation,40.472,-78.969
MARKWEST LIBERTY MIDSTREAM & RESOURCES LLC,1,MARKWEST LIBERTY MIDSTREAM RES/DOWN HOME COMPRESSOR STATION,15958.6307,CompressorStation,40.473333,-80.358056
DIVERSIFIED PROD LLC,1,ALLIANCE PETROLUEM CORP/MALONE COMP STA,520.3523,CompressorStation,40.489722,-79.4075
FATE VENTURES LLC,1,FATE VENTURES CLAWSON COMP STA,1378.4056,CompressorStation,40.491111,-79.270278
HUNTLEY & HUNTLEY INC,1,D & B GAS PROD LLC/WASHINGTON STATION,464.6293,CompressorStation,40.496667,-79.620556
CNX MIDSTREAM OPR CO LLC,1,CNX MIDSTREAM OPR CO LLC/MAMONT COMP STA,26416.826,CompressorStation,40.506667,-79.564444
PEOPLES NATURAL GAS CO LLC,1,PEOPLES NATURAL GAS/MERWIN COMP STA,649.379,CompressorStation,40.508333,-79.620278
RANGE RESOURCES APPALACHIA LLC,1,RANGE RESOURCES APPALACHIA/BLACKLICK STA,165.1435,CompressorStation,40.513825,-79.277489
PEOPLES NATURAL GAS CO LLC,1,PEOPLES NATURAL GAS/EGRY STA,1816.7345,CompressorStation,40.514444,-79.349167
HUNTLEY & HUNTLEY INC,1,D & B GAS PROD LLC/TARPAY STA,228.307,CompressorStation,40.522222,-79.618611
MTN GATHERING LLC,1,MOUNTAIN GATHERING/HOMER CITY PP COMP STA,1475.813,CompressorStation,40.53821,-79.19395
DIVERSIFIED PROD LLC,1,ALLIANCE PETROLEUM CORP/BELL POINT COMP STA,1947.9264,CompressorStation,40.541326,-79.533841
CNX GAS CO LLC,1,CNX GAS CO LLC / WENSHEIMER COMP FUEL,325.6048,CompressorStation,40.553985,-79.206384
SUPERIOR APPALACHIAN PIPELINE LLC,1,SUPERIOR APPALACHIAN PIPELINE/FRAZER,17689.9657,CompressorStation,40.577247,-79.8109
DIVERSIFIED PROD LLC,1,ALLIANCE PETROLEUM CORP/SPURLIN COMP STA,210.1078,CompressorStation,40.579722,-79.233056
MTN GATHERING LLC,1,MTN GATHERING LLC/ CARNEY COMP STA,229.3321,CompressorStation,40.582069,-79.288158
DIVERSIFIED PROD LLC,1,ALLIANCE PETROLEUM CORP/HOMER CITY STA,1805.5696,CompressorStation,40.586389,-79.1035
EXCO RESOURCES PA LLC,1,EXCO RESOURCES PA INC/ NOLO COMP STA,14.4058,CompressorStation,40.587592,-78.930082
EXCO RESOURCES PA LLC,1,EXCO RESOURCES PA INC/RISINGER COMP STA,61.6068,CompressorStation,40.59227,-79.18527
LAUREL MTN MIDSTREAM OPR LLC,1,LAUREL MTN MIDSTREAM OPR LLC/BEAGLE DEHY STA,183.6512,CompressorStation,40.597806,-79.399667
CONSOL GAS CO,1,CNX GAS CO LLC/FENTON COMP STA,487.2999,CompressorStation,40.598645,-79.203989
DIVERSIFIED PROD LLC,1,CLARK COMPRESSOR STATION,184.8131,CompressorStation,40.6236,-79.4938
CNX GAS CO LLC,1,CNX GAS CO LLC/ TRIMARCHI GAS COMP STA,677.1532,CompressorStation,40.63706,-79.241738
CNX GAS CO LLC,1,CNX GAS CO LLC/ BALBO,940.2586,CompressorStation,40.645894,-79.388486
CNX GAS CO LLC,2,CNX GAS CO LLC / BEATTY WRIGHT,340.8418,CompressorStation,40.646293,-79.118202
PEOPLES NATURAL GAS CO LLC,1,PEOPLES NATURAL GAS CO LLC/CREEKSIDE COMP STA,680.8643,CompressorStation,40.6525,-79.181667
CNX GAS CO LLC,1,CNX GAS CO LLC / IRWIN,76.5464,CompressorStation,40.658108,-79.626809
EXCO RESOURCES PA INC,1,EXCO RESOURCES PA INC/WANDIN STA,274.055,CompressorStation,40.663944,-78.938167
CNX GAS CO LLC,1,CNX GAS CO LLC/ CONSOL COMP STA,846.3232,CompressorStation,40.669292,-79.226393
DIVERSIFIED PROD LLC,2,ALLIANCE PETROLEUM CORP/PINETON COMP STA,2397.2307,CompressorStation,40.675278,-78.888056
MTN GATHERING LLC,1,MOUNTAIN GATHERING LLC/PALKO PURCHASE METER,256.17,CompressorStation,40.681669,-79.775483
MDS GATHERING LLC,1,MDS GATHERING LLC/GILPIN COMP STA,33.8334,CompressorStation,40.683797,-79.586894
LAUREL MTN MIDSTREAM OPR LLC,1,LAUREL MTN MIDSTREAM OPR LLC/CLYDE NORTH STA,274.8577,CompressorStation,40.683889,-78.906944
DIVERSIFIED PROD LLC,1,ALLIANCE PETROLEUM HILL COMP STA,229.1915,CompressorStation,40.691806,-78.908472
LAUREL MTN MIDSTREAM OPR LLC,1,LAUREL MTN MIDSTREAM OPR LLC/ BUTERBAUGH WELL PAD,785.7123,CompressorStation,40.694583,-78.914857
DIVERSIFIED PROD LLC,1,ALLIANCE PETROLEUM CORP/ONSBERG COMP STA,460.1481,CompressorStation,40.695833,-79.025833
SUPERIOR APPALACHIAN PIPELINE LLC,1,SUPERIOR APPALACHIAN PIPELINE LLC/CLINTON COMP STA,19233.0917,CompressorStation,40.696167,-79.814917
DIVERSIFIED PROD LLC,1,ALLIANCE PETROLEUM MCCOY GAS COMP STA,241.2634,CompressorStation,40.701934,-78.883635
MTN GATHERING LLC,1,MTN GATHERING LLC/MCINTYRE COMP STA,1071.53,CompressorStation,40.702175,-79.643486
CNX GAS CO LLC,1,CNX GAS CO LLC/ WILLIAMS,260.8595,CompressorStation,40.7027,-78.8066
SNYDER BROS INC,1,SNYDER BROS INC/ENSIGN COMPRESSOR STATION,125.1211,CompressorStation,40.705,-79.625
PINE RUN MIDSTREAM LLC,1,PINE RUN MIDSTREAM LLC/BASS COMP STA,27308.222,CompressorStation,40.71,-79.816667
PINE RUN MIDSTREAM LLC,1,PINE RUN MIDSTREAM BREWER INTERCONNECT STA,4.2918,CompressorStation,40.7125,-79.833889
DIVERSIFIED OIL & GAS LLC,1,DIVERSIFIED OIL & GAS LLC/COOKPORT COMP STA,565.5471,CompressorStation,40.713611,-78.880556
EQT CORP,1,EQT GATHERING LLC/TERRA COMP STA,13701.2784,CompressorStation,40.714444,-79.405833
DIVERSIFIED PROD LLC,1,ALLIANCE PETROLEUM CORP/MAURER COMP STA,252.3571,CompressorStation,40.717778,-78.832778
DIVERSIFIED PROD LLC,1,ALLIANCE PETROLEUM CORP/WHITACRE COMP STA,284.4853,CompressorStation,40.72711,-79.14201
EXCO RESOURCES PA INC,1,EXCO RESOURCES/MYERS COMP STA,54.7391,CompressorStation,40.7421,-78.85588
EXCO RESOURCES PA INC,1,EXCO RESOURCES PA INC/MANOR COMP STA,0,CompressorStation,40.742778,-79.458611
CNX GAS CO LLC,1,CNX GAS CO LLC / LIGHTCAP,177.1298,CompressorStation,40.743049,-79.126265
EXCO RESOURCES PA INC,1,EXCO APPALACHIA MIDSTREAM LLC/SAWMILL COMP STA,6897.024,CompressorStation,40.743333,-79.402778
MTN GATHERING LLC,1,MTN GATHERING LLC/LIGHTCAP COMP STA,618.927,CompressorStation,40.744722,-79.060278
ETC NORTHEAST FLD SVC LLC,1,ETC NORTHEAST FIELD SERVICES LLC/PIKE COMP STA,35755.283,CompressorStation,40.744858,-80.17
COLUMBIA GAS OF PA INC,1,COLUMBIA GAS OF PENNSYLVANIA/BLACKHAWK COMP STA,593.8255,CompressorStation,40.752316,-80.443247
UTICA GAS SVC LLC,1,UTICA GAS SVC LLC/BEAVER CREEK CDP,1321.1396,CompressorStation,40.752796,-80.49451
MTN GATHERING LLC,1,MTN GATHERING LLC/BOOTMAN COMP STA,58.6062,CompressorStation,40.754685,-78.825343
RANGE RESOURCES APPALACHIA LLC,1,RANGE RESOURCES APPALACHIA/KIMMEL COMP STA,215.0839,CompressorStation,40.765197,-79.222824
DIVERSIFIED PROD LLC,1,ALLIANCE PETROLEUM CORP/HENRY COMPRESSOR,613.8032,CompressorStation,40.769722,-79.007778
RANGE OPR CO,1,RANGE OPR/ CLARK 151 STA,204.0899,CompressorStation,40.7725,-78.826944
MARKWEST LIBERTY BLUESTONE LLC,1,MARKWEST LIBERTY BLUESTONE LLC/ROYAL OAK COMP STA,64357.6299,CompressorStation,40.7769,-80.0364
MTN GATHERING LLC,1,MTN GATHERING LLC/JEFFERSON COMP STA,45693.78,CompressorStation,40.780278,-79.841944
DIVERSIFIED PROD LLC,1,ALLIANCE PETROLEUM STUBRICK COMP STA,335.4399,CompressorStation,40.802463,-79.395846
MARKWEST LIBERTY BLUESTONE LLC,1,MARKWEST LIBERTY BLUESTONE LLC/BLUESTONE GAS PROC PLT,141475.8974,CompressorStation,40.804877,-80.07941
MTN GATHERING LLC,1,MOUNTAIN GATHERING LLC/FORWARD COMP STA,28647.83,CompressorStation,40.80741,-79.979558
DOMINION ENERGY TRANS INC,1,DOMINION ENERGY TRANS INC/RURAL VLY COMP STA,12720.5698,CompressorStation,40.808611,-79.377222
DIVERSIFIED PROD LLC,1,ALLIANCE PETROLEUM CORP/CAMPBELL COMP STA,813.708,CompressorStation,40.809167,-79.131389
PINE RUN MIDSTREAM LLC,1,PINE RUN MIDSTREAM LLC/TROUT COMP STA,32175.4647,CompressorStation,40.812778,-79.685556
MTN GATHERING LLC,1,MOUNTAIN GATHERING LLC/PENN CRYO FAC,9283.3,CompressorStation,40.813056,-79.939167
MARKWEST LIBERTY BLUESTONE LLC,1,MARKWEST LIBERTY BLUESTONE LLC/SARSEN GAS PROC PLT,32557.8467,CompressorStation,40.814167,-80.049722
EXCO APPALACHIA MIDSTREAM LLC,1,EXCO APPALACHIA MIDSTREAM LLC/POVERTY HILL COMP STA,6414.5379,CompressorStation,40.8302,-79.4725
PINE RUN MIDSTREAM LLC,1,PINE RUN MIDSTREAM LLC/BURKE INTERCONNECT,1.9048,CompressorStation,40.830786,-79.677694
SNYDER BROS INC,1,SNYDER BROTHERS INC/MUSHROOM MINE COMP STA,12030.7722,CompressorStation,40.830833,-79.678056
COLUMBIA GAS TRANS,1,COLUMBIA GAS TRANS CORP/ELLWOOD CITY STA,769.81,CompressorStation,40.832769,-80.252933
EXCO RESOURCES PA INC,1,EXCO RESOURCES PA INC/DICKEY COMP STA,473.9594,CompressorStation,40.833056,-79.355
MARKWEST LIBERTY MIDSTREAM & RESOURCES LLC,1,MARKWEST LIBERTY BLUESTONE LLC/VOLL COMP STA,18987.2348,CompressorStation,40.8386,-80.0558
SNYDER BROS INC,1,SNYDER BROS/FURNACE RUN COMP STA,11237.2331,CompressorStation,40.852871,-79.522333
FAIRMAN DRILLING CO,1,FAIRMAN CORP/HIMES STA,988.7039,CompressorStation,40.853111,-78.996431
DIVERSIFIED PROD LLC,1,ALLIANCE PETROLEUM CORP/MARCHAND COMP STA,1300.47,CompressorStation,40.85386,-79.016667
MARKWEST LIBERTY BLUESTONE LLC,1,MARKWEST LIBERTY BLUESTONE LLC TRILLITH GAS PROC PLT,39944.6298,CompressorStation,40.855278,-80.102778
SNYDER BROS INC,1,SNYDER BROS INC/AMBROSE COMP STA,5339.6317,CompressorStation,40.858333,-79.535833
EXCO RESOURCES PA LLC,1,EXCO RESOURCES PA INC/ JORDAN COMP STA,67.8304,CompressorStation,40.881845,-78.999457
GEOPETRO LLC,1,GEOPETRO LLC/PATTERSON COMP STA,3767.2248,CompressorStation,40.890986,-80.409675
DIVERSIFIED PROD LLC,1,ALLIANCE PETROLEUM CO LLC/JOHNSONBURG COMP STA,1286.8826,CompressorStation,40.894707,-78.904738
DIVERSIFIED PROD LLC,1,ALLIANCE PETROLEUM CO LLC/STUBY COMP STA,1359.5279,CompressorStation,40.897023,-79.013393
MTN GATHERING LLC,1,MTN GATHERING LLC/MILLER,146.484,CompressorStation,40.906398,-79.074896
PEOPLES NATURAL GAS CO LLC,1,PEOPLES NATURAL GAS CO LLC/BELKNAP COMP STA,6222.1932,CompressorStation,40.9084,-79.3004
SNYDER BROS INC,1,SNYDER BROTHERS INC/HOGBACK COMP STA,1422.6305,CompressorStation,40.910833,-79.357778
NATL FUEL GAS SUPPLY CORP,1,NATL FUEL GAS SUPPLY/KAYLOR STA,1425.7059,CompressorStation,40.94436,-79.616702
AXIP PROD SVC MARCELLUS I LLC,1,AXIP CONSTELLATION FAC/WEST SUNBURY,45084.4968,CompressorStation,40.947181,-79.864477
STONEHENGE APPALACHIA LLC,1,STONEHENGE APPALACHIA/RENICK COMP STA,56534.8422,CompressorStation,40.957378,-79.905671
DIVERSIFIED PROD LLC,1,ALLIANCE PETROLEUM CORP/STATE GAMELANDS COMP STA,806.6409,CompressorStation,40.973889,-79.306944
HILCORP ENERGY CO,1,HILCORP ENERGY CO/NCD CENTRAL FAC,8227.6867,CompressorStation,40.987028,-80.449758
HILCORP ENERGY CO,1,HILCORP ENERGY CO/MAHONING SIEGEL FACILITY,22345.4697,CompressorStation,41.0489,-80.47512
HILCORP ENERGY CO,1,HILCORP ENERGY CO/PULASKI WHITING CTL FAC,24446.6321,CompressorStation,41.0879,-80.4204
ETC NORTHEAST PIPELINE LLC,1,ETC NORTHEAST PIPELINE/GALAXY COMP STA,515.059,CompressorStation,41.09009,-79.760436
HILCORP ENERGY CO,1,HILCORP ENERGY CO/PULASKI CARLISLE CTL FAC,18624.4596,CompressorStation,41.11216,-80.461345
ENERVEST OPR LLC,1,ENERVEST OPR LLC/CYPHERT COMP STA,1627.622,CompressorStation,41.1348,-80.2681
HILCORP ENERGY CO,1,HILCORP ENERGY CO/SHENANGO RADKOWSKI STA,3540.5768,CompressorStation,41.14141,-80.43722
LAUREL MTN MIDSTREAM OPR LLC,1,LAUREL MTN MIDSTREAM OPR LLC/HURTT COMP STA,5359.6108,CompressorStation,41.179797,-80.271656
HILCORP ENERGY CO,1,HILCORP ENERGY CO/LACKAWANNOCK LARMON FAC,18250.8303,CompressorStation,41.20471,-80.35049
HILCORP ENERGY CO,1,HILCORP ENERGY CO/JEFFERSON MONTGOMERY STA,5610.7622,CompressorStation,41.27053,-80.296701
NATL FUEL GAS SUPPLY CORP,1,NATL FUEL GAS SUPPLY CORP/MERCER COMP STA,20857.1107,CompressorStation,41.278331,-80.277958
LAUREL MTN MIDSTREAM OPR LLC,1,LAUREL MTN MIDSTREAM OPR LLC/JACKSON CTR COMP STA,5088.7798,CompressorStation,41.283319,-80.15599
VISTA RESOURCES INC,1,VISTA RESOURCES INC/FAIRVIEW TWP COMP STA,1598.5014,CompressorStation,41.36255,-80.232114
ENERVEST OPR LLC,1,ENERVEST OPR LLC/COLLINS STA,129.2561,CompressorStation,41.409867,-80.441533
LAUREL MTN MIDSTREAM OPR LLC,1,LAUREL MTN MIDSTREAM OPR LLC/LAKE WILHELM COMP STA,1814.6744,CompressorStation,41.4674,-80.1296
VISTA RESOURCES INC,1,VISTA RESOURCES INC/DEER CREEK COMP STA,2726.3707,CompressorStation,41.469732,-80.128145
RANGE RESOURCES APPALACHIA LLC,1,RANGE RESOURCES APPALACHIA/WALLACE STATION,3163.9252,CompressorStation,41.482085,-80.037233
DIVERSIFIED OIL & GAS LLC,1,LILLY 28,7.27757,GasWell,39.721901,-79.961717
DIVERSIFIED OIL & GAS LLC,1,MATHEWS 36,7.27757,GasWell,39.722018,-79.981076
CHEVRON APPALACHIA LLC,1,JORDAN UNIT 28H,446.03655,GasWell,39.722292,-79.954439
DIVERSIFIED OIL & GAS LLC,1,MATTHEWS 32A,7.29144,GasWell,39.723887,-79.994379
DIVERSIFIED OIL & GAS LLC,1,MATTHEWS 30,7.28237,GasWell,39.724379,-79.987551
DIVERSIFIED OIL & GAS LLC,1,CLINE 5,7.42523,GasWell,39.725115,-80.010918
DIVERSIFIED OIL & GAS LLC,1,MATTHEWS 31,7.29538,GasWell,39.725968,-79.997212
AMER OIL & GAS LLC,1,ROYAL CROWN DEVELOPMENT LLC HOOK 1,0.43603,GasWell,39.726273,-80.041661
DIVERSIFIED OIL & GAS LLC,1,MATHEWS 29A,7.27757,GasWell,39.726459,-79.990384
DIVERSIFIED OIL & GAS LLC,1,MATHEWS 35,7.27757,GasWell,39.727179,-79.981042
DIVERSIFIED OIL & GAS LLC,1,HOLBERT 6,7.27757,GasWell,39.732507,-80.013179
DIVERSIFIED OIL & GAS LLC,1,JORDAN 17,16.49659,GasWell,39.732614,-79.957786
CHEVRON APPALACHIA LLC,1,JORDAN 21H,434.57557,GasWell,39.732628,-79.957747
DIVERSIFIED OIL & GAS LLC,1,MATHEWS 33,7.27757,GasWell,39.73289,-80.002221
INR OPR LLC,1,COASTAL 1H,15.04816,GasWell,39.733294,-79.801028
CHEVRON APPALACHIA LLC,1,RICE UNIT 1H,450.82146,GasWell,39.733306,-80.33275
DIVERSIFIED OIL & GAS LLC,1,JORDAN 16,7.27757,GasWell,39.733348,-79.965831
INR OPR LLC,1,COASTAL/SMITH UNIT 1H,13.08502,GasWell,39.73335,-79.801031
DIVERSIFIED OIL & GAS LLC,1,MATHEWS 37,7.28333,GasWell,39.733757,-79.987415
RICE DRILLING B LLC,1,SANDROCK 11H,5.02319,GasWell,39.735044,-80.378447
RICE DRILLING B LLC,1,SANDROCK 15H,5.9607,GasWell,39.73505,-80.378358
RICE DRILLING B LLC,1,SANDROCK 5H,5.02319,GasWell,39.735075,-80.378483
RICE DRILLING B LLC,1,SANDROCK 4H,5.02319,GasWell,39.735106,-80.378519
RICE DRILLING B LLC,1,SANDROCK 1H,5.02319,GasWell,39.735119,-80.378681
RICE DRILLING B LLC,1,SANDROCK 6H,2.66584,GasWell,39.735133,-80.378556
RICE DRILLING B LLC,1,SANDROCK 2H,5.02319,GasWell,39.73515,-80.378717
RICE DRILLING B LLC,1,SANDROCK 12H,5.02319,GasWell,39.735164,-80.378592
RICE DRILLING B LLC,1,SANDROCK 3H,5.02319,GasWell,39.735194,-80.378628
DIVERSIFIED OIL & GAS LLC,1,HOLBERT 5,7.27757,GasWell,39.73647,-80.008393
DIVERSIFIED OIL & GAS LLC,1,JORDAN 15,11.89199,GasWell,39.738601,-79.9634
CHEVRON APPALACHIA LLC,1,KNIGHT UNIT 14H,1718.08002,GasWell,39.738978,-79.844828
DIVERSIFIED OIL & GAS LLC,1,MEDVED 4,7.32345,GasWell,39.73939,-79.833151
RICE DRILLING B LLC,1,MICHAEL MCNICHOLAS GRE 8H,5.4361,GasWell,39.740339,-80.494878
CHEVRON APPALACHIA LLC,1,DONLEY UNIT 22H,667.57442,GasWell,39.742728,-79.989231
CHEVRON APPALACHIA LLC,1,LANCO UNIT 10H,956.92625,GasWell,39.743344,-80.011986
LPR ENERGY LLC,1,PMG ALLEN UNIT 1H,1361.35482,GasWell,39.743583,-79.357611
LPR ENERGY LLC,1,POLK UNIT 3H,2571.9766,GasWell,39.746414,-79.529608
CHEVRON APPALACHIA LLC,1,CHICO UNIT 1H,733.54095,GasWell,39.746956,-79.858581
DIVERSIFIED OIL & GAS LLC,1,ZINN UNIT 2,2.6704,GasWell,39.747928,-79.877925
DIVERSIFIED OIL & GAS LLC,1,FAY-PENN 44,7.28557,GasWell,39.748776,-79.844685
LPR ENERGY LLC,1,PMG GRACE UNIT 1H,665.49279,GasWell,39.757744,-79.356553
CHEVRON APPALACHIA LLC,1,LANCO UNIT 6H,688.42582,GasWell,39.761575,-80.007239
DIVERSIFIED OIL & GAS LLC,1,WOLF 27,7.28184,GasWell,39.769095,-79.890231
DIVERSIFIED OIL & GAS LLC,1,ROBINSON 29,7.28759,GasWell,39.769181,-79.807842
DIVERSIFIED OIL & GAS LLC,1,GAME LANDS UNIT 2,7.2893,GasWell,39.769214,-80.005253
CHEVRON APPALACHIA LLC,1,GAME LANDS UNIT 4H,204.98589,GasWell,39.769239,-80.005289
DIVERSIFIED OIL & GAS LLC,1,RICH FARMS 7,7.27757,GasWell,39.769509,-79.802347
DIVERSIFIED OIL & GAS LLC,1,GAME LANDS UNIT 1,7.29635,GasWell,39.772456,-80.006211
CHEVRON APPALACHIA LLC,1,GAME LANDS UNIT 3H,81.23091,GasWell,39.772486,-80.006222
DIVERSIFIED OIL & GAS LLC,1,J L L 2,7.27757,GasWell,39.774008,-79.996728
DIVERSIFIED OIL & GAS LLC,1,J L L 1A,7.28184,GasWell,39.775044,-80.000483
DIVERSIFIED OIL & GAS LLC,1,TRIPLETT 2,7.27757,GasWell,39.781481,-79.860099
CHEVRON APPALACHIA LLC,1,MILLER UNIT 76H,1667.25033,GasWell,39.785108,-80.028983
RICE DRILLING B LLC,1,DRAGON CHAN 2,224.3707,GasWell,39.787233,-80.509742
RICE DRILLING B LLC,1,DRAGON CHAN 4,171.36605,GasWell,39.787272,-80.509669
RICE DRILLING B LLC,1,DRAGON CHAN 6,128.69005,GasWell,39.787314,-80.509597
RICE DRILLING B LLC,1,DRAGON CHAN 8,161.56621,GasWell,39.787356,-80.509528
RICE DRILLING B LLC,1,DRAGON CHAN 10,179.71448,GasWell,39.787397,-80.509456
RICE DRILLING B LLC,1,DRAGON CHAN 12,252.86101,GasWell,39.787436,-80.509383
RICE DRILLING B LLC,1,WILLIAM LANE 6,196.25382,GasWell,39.789203,-80.481314
RICE DRILLING B LLC,1,WILLIAM LANE 4,3192.4806,GasWell,39.789242,-80.481331
RICE DRILLING B LLC,1,WILLIAM LANE 8,370.71753,GasWell,39.789247,-80.481203
RICE DRILLING B LLC,1,WILLIAM LANE 10,287.19948,GasWell,39.789272,-80.481214
RICE DRILLING B LLC,1,WILLIAM LANE 2,1474.01551,GasWell,39.789281,-80.48135
RICE DRILLING B LLC,1,WILLIAM LANE GRE 3H,14.57302,GasWell,39.789306,-80.481361
RICE DRILLING B LLC,1,WILLIAM LANE 12,498.13345,GasWell,39.789311,-80.481231
RICE DRILLING B LLC,1,WILLIAM LANE 14,289.60547,GasWell,39.78935,-80.48125
RICE DRILLING B LLC,1,PISTON HONDA 8,556.33892,GasWell,39.792283,-80.502889
DIVERSIFIED OIL & GAS LLC,1,KOVALIC 13,7.27757,GasWell,39.794014,-79.843524
CHEVRON APPALACHIA LLC,1,PBG-SMITH UNIT 10H,2414.54053,GasWell,39.794886,-80.054636
DIVERSIFIED OIL & GAS LLC,1,BENNINGER 24,7.27757,GasWell,39.799475,-79.86828
DIVERSIFIED OIL & GAS LLC,1,BEZJAK 26,4.97281,GasWell,39.799758,-79.891334
DIVERSIFIED OIL & GAS LLC,1,RAZILLARD 1,14.22278,GasWell,39.802167,-80.004904
RICE DRILLING B LLC,1,WALTER STINGER 8H,674.91375,GasWell,39.802222,-80.501778
RICE DRILLING B LLC,1,WALTER STINGER 12,1161.26351,GasWell,39.802225,-80.501639
RICE DRILLING B LLC,1,WALTER STINGER 10,2026.74321,GasWell,39.802225,-80.501711
CHEVRON APPALACHIA LLC,1,COMMONWEALTH 496 1H,4781.87149,GasWell,39.80245,-80.046925
RANGE RESOURCES APPALACHIA LLC,1,HOWARD 1,2.68329,GasWell,39.804056,-79.968267
RICE DRILLING B LLC,1,DADDY LONG LEGS 1H,122.88612,GasWell,39.807625,-80.301214
RICE DRILLING B LLC,1,DADDY LONG LEGS 11H,3200.96935,GasWell,39.807692,-80.301217
RICE DRILLING B LLC,1,DADDY LONG LEGS 9H,2178.98242,GasWell,39.807761,-80.301219
RICE DRILLING B LLC,1,DADDY LONG LEGS 7H,2541.5949,GasWell,39.807831,-80.301222
RICE DRILLING B LLC,1,DADDY LONG LEGS 5H,334.55311,GasWell,39.807897,-80.301225
RICE DRILLING B LLC,1,DADDY LONG LEGS 3H,1776.79097,GasWell,39.807967,-80.301228
RANGE RESOURCES APPALACHIA LLC,1,HOWARD 9H,3.85892,GasWell,39.810694,-79.967405
RICE DRILLING B LLC,1,GEORGE RICHTER 10,1895.07581,GasWell,39.813619,-80.4773
RICE DRILLING B LLC,1,GEORGE RICHTER 4,1731.34622,GasWell,39.813656,-80.477325
RICE DRILLING B LLC,1,GEORGE RICHTER 8H,9.76689,GasWell,39.813667,-80.477333
RICE DRILLING B LLC,1,GEORGE RICHTER 2,1907.48613,GasWell,39.813692,-80.47735
RICE DRILLING B LLC,1,GEORGE RICHTER 6H,9.76689,GasWell,39.813694,-80.477306
RICE DRILLING B LLC,1,STATTLER ROAD 1,125.46094,GasWell,39.814381,-80.173933
RICE DRILLING B LLC,1,STATTLER ROAD 17,1170.12849,GasWell,39.814419,-80.173819
RICE DRILLING B LLC,1,STATTLER ROAD 3,86.62161,GasWell,39.814419,-80.173956
RICE DRILLING B LLC,1,STATTLER ROAD 15,983.52647,GasWell,39.814456,-80.173842
RICE DRILLING B LLC,1,STATTLER ROAD 5,284.53115,GasWell,39.814456,-80.173975
RICE DRILLING B LLC,1,STATTLER ROAD 13,863.13807,GasWell,39.814494,-80.173861
RICE DRILLING B LLC,1,STATTLER ROAD 7,725.01769,GasWell,39.814494,-80.173997
RICE DRILLING B LLC,1,STATTLER ROAD 11,1436.58066,GasWell,39.814531,-80.173883
RICE DRILLING B LLC,1,STATTLER ROAD 9,1039.28767,GasWell,39.814533,-80.174019
RANGE RESOURCES APPALACHIA LLC,1,HARDIE UNIT 2H-A,5.69872,GasWell,39.815125,-80.00455
DIVERSIFIED OIL & GAS LLC,1,HEADLEE 11,7.3992,GasWell,39.815228,-80.038328
EQT PROD CO,1,STATE GAME LANDS 179 NFR60H32,249.0672,GasWell,39.815247,-80.402222
EQT PROD CO,1,STATE GAME LANDS 179 NFR60H31,247.84082,GasWell,39.815256,-80.402256
EQT PROD CO,1,STATE GAME LANDS 179 NFR60H30,635.50272,GasWell,39.815264,-80.402289
EQT PROD CO,1,STATE GAME LANDS 179 NFR60H29,517.27456,GasWell,39.815272,-80.402322
EQT PROD CO,1,STATE GAME LANDS 179 NFR60H15,138.90618,GasWell,39.815328,-80.402203
EQT PROD CO,1,STATE GAME LANDS 179 NFR60H14,367.23909,GasWell,39.815336,-80.402236
EQT PROD CO,1,STATE GAME LANDS 179 NFR60H13,355.61657,GasWell,39.815347,-80.402269
EQT PROD CO,1,STATE GAME LANDS 179 NFR60H12,428.56969,GasWell,39.815356,-80.402306
EQT PROD CO,1,STATE GAME LANDS 179 NFR60H11,385.01609,GasWell,39.815364,-80.402339
EQT PROD CO,1,STATE GAME LANDS 179 NFR60H34,397.87625,GasWell,39.815375,-80.402372
CHEVRON APPALACHIA LLC,1,JOHNSON UNIT 16H,495.81453,GasWell,39.818833,-80.036136
DIVERSIFIED OIL & GAS LLC,1,COLVIN 6,7.30105,GasWell,39.818844,-79.976686
RICE DRILLING B LLC,1,THUNDER 2 8H,24.48638,GasWell,39.818936,-80.287661
RICE DRILLING B LLC,1,THUNDER 2 10H,25.1801,GasWell,39.818964,-80.287722
RICE DRILLING B LLC,1,THUNDER TWO 5H,24.48638,GasWell,39.818994,-80.287783
RICE DRILLING B LLC,1,POLAR VORTEX 2H,39.28309,GasWell,39.819119,-80.343203
RICE DRILLING B LLC,1,POLAR VORTEX 4H,14.71951,GasWell,39.819153,-80.343125
RICE DRILLING B LLC,1,POLAR VORTEX 6H,14.71951,GasWell,39.819189,-80.343047
RICE DRILLING B LLC,1,POLAR VORTEX 8H,14.71951,GasWell,39.819222,-80.342969
DIVERSIFIED OIL & GAS LLC,1,KOVACH 33,7.30904,GasWell,39.823392,-79.974086
GREYLOCK CONVENTIONAL LLC,1,CORRY 4,0.88162,GasWell,39.824589,-80.059617
RICE DRILLING B LLC,1,JOHN BRIGGS 4,116.09559,GasWell,39.825211,-80.496906
RICE DRILLING B LLC,1,JOHN BRIGGS 6,114.09366,GasWell,39.825256,-80.496839
DIVERSIFIED OIL & GAS LLC,1,CONSOL/USX 30,7.27757,GasWell,39.825269,-79.954733
RICE DRILLING B LLC,1,JOHN BRIGGS 8,1092.39126,GasWell,39.825303,-80.496775
RICE DRILLING B LLC,1,JOHN BRIGGS 2,115.65274,GasWell,39.825336,-80.496936
RICE DRILLING B LLC,1,JOHN BRIGGS 50U,14.23107,GasWell,39.825372,-80.496647
RICE DRILLING B LLC,1,JOHN BRIGGS 10,1380.35168,GasWell,39.825383,-80.496869
RICE DRILLING B LLC,1,JOHN BRIGGS 3H,14.23107,GasWell,39.825444,-80.496778
RICE DRILLING B LLC,1,JOHN BRIGGS 1H,16.56778,GasWell,39.825472,-80.496722
RICE DRILLING B LLC,1,JOHN BRIGGS 5H,11.85923,GasWell,39.8255,-80.496694
GREYLOCK CONVENTIONAL LLC,1,VECCHIO 1,0.86445,GasWell,39.825736,-80.039366
RICE DRILLING B LLC,1,THUNDER 1 10,241.05799,GasWell,39.826681,-80.279325
RICE DRILLING B LLC,1,THUNDER 1 12,235.05433,GasWell,39.826719,-80.279311
RICE DRILLING B LLC,1,THUNDER UNIT ONE 6H,0.2795,GasWell,39.826753,-80.279353
RICE DRILLING B LLC,1,THUNDER 1 14,240.02231,GasWell,39.826761,-80.279294
RICE DRILLING B LLC,1,THUNDER 1 16,167.76452,GasWell,39.826839,-80.279267
RICE DRILLING B LLC,1,THUNDER 1.2H,0.2795,GasWell,39.826861,-80.279306
RICE DRILLING B LLC,1,THUNDER 1 18,0.06676,GasWell,39.826878,-80.279253
RICE DRILLING B LLC,1,THUNDER UNIT ONE 1V,0.34195,GasWell,39.826889,-80.27911
RICE DRILLING B LLC,1,THUNDER UNIT ONE 8H,0.2795,GasWell,39.826914,-80.279286
DIVERSIFIED OIL & GAS LLC,1,BERTOVICH 25,7.29677,GasWell,39.827214,-79.910145
RICE DRILLING B LLC,1,GREAT TIGER 2,1337.10132,GasWell,39.827906,-80.4781
RICE DRILLING B LLC,1,MAC 1,250.05731,GasWell,39.827947,-80.159311
RICE DRILLING B LLC,1,MAC 3,272.12102,GasWell,39.82795,-80.159258
RICE DRILLING B LLC,1,MAC 5,139.94129,GasWell,39.827953,-80.159203
RICE DRILLING B LLC,1,MAC 7,184.86756,GasWell,39.827956,-80.15915
RICE DRILLING B LLC,1,MAC 9,145.48254,GasWell,39.827958,-80.159097
RICE DRILLING B LLC,1,MAC 11,163.61957,GasWell,39.827961,-80.159044
RICE DRILLING B LLC,1,MAC 13,258.67577,GasWell,39.827964,-80.158992
RICE DRILLING B LLC,1,MAC 15,296.59249,GasWell,39.827967,-80.158936
RICE DRILLING B LLC,1,GREAT TIGER 4,1326.74745,GasWell,39.827969,-80.478069
RICE DRILLING B LLC,1,GREAT TIGER 6,1086.49134,GasWell,39.828033,-80.478039
RICE DRILLING B LLC,1,GREAT TIGER 8,1441.76561,GasWell,39.8281,-80.478008
RICE DRILLING B LLC,1,ALPHA UNIT 2 1H,14.75479,GasWell,39.8283,-80.3234
RICE DRILLING B LLC,1,ALPHA UNIT 2 1.1H,15.96248,GasWell,39.828314,-80.323478
RICE DRILLING B LLC,1,ALPHA UNIT 2 2H,14.75479,GasWell,39.828344,-80.323356
RICE DRILLING B LLC,1,ALPHA UNIT 2 3H,14.75479,GasWell,39.828358,-80.323433
RICE DRILLING B LLC,1,ALPHA UNIT 2 6H,14.75479,GasWell,39.828386,-80.323311
RICE DRILLING B LLC,1,ALPHA UNIT 2 5H,14.75479,GasWell,39.8284,-80.323389
RICE DRILLING B LLC,1,ALPHA UNIT 2 8H,14.75479,GasWell,39.828428,-80.323267
RICE DRILLING B LLC,1,ALPHA UNIT 2 7H,14.75479,GasWell,39.828442,-80.323344
DIVERSIFIED OIL & GAS LLC,1,BURCHIANTI 53,9.58232,GasWell,39.830058,-80.0078
CHEVRON APPALACHIA LLC,1,BURCHIANTI 45H,582.5079,GasWell,39.830092,-80.007761
DIVERSIFIED OIL & GAS LLC,1,CONSOL/USX 90,7.2893,GasWell,39.830833,-79.983258
RICE DRILLING B LLC,1,MAGNUM 19,907.55324,GasWell,39.832322,-80.250183
RICE DRILLING B LLC,1,MAGNUM 1,1040.03205,GasWell,39.832342,-80.250269
RICE DRILLING B LLC,1,MAGNUM 17,884.352,GasWell,39.832364,-80.250169
RICE DRILLING B LLC,1,MAGNUM 3,1583.69379,GasWell,39.832381,-80.250256
RICE DRILLING B LLC,1,MAGNUM 15,891.48279,GasWell,39.832403,-80.250156
RICE DRILLING B LLC,1,MAGNUM 5,296.60625,GasWell,39.832422,-80.250242
RICE DRILLING B LLC,1,MAGNUM 13,2013.44696,GasWell,39.832442,-80.250142
RICE DRILLING B LLC,1,MAGNUM 7,810.28585,GasWell,39.832461,-80.250228
RICE DRILLING B LLC,1,MAGNUM 11,2269.57996,GasWell,39.832481,-80.250128
RICE DRILLING B LLC,1,MAGNUM 9,1931.58281,GasWell,39.8325,-80.250211
RICE DRILLING B LLC,1,GLASS JOE 2,0.2795,GasWell,39.833286,-80.475369
RICE DRILLING B LLC,1,GLASS JOE 1H,0.02151,GasWell,39.833361,-80.475478
RICE DRILLING B LLC,1,GLASS JOE 6,1613.39859,GasWell,39.833386,-80.475292
RICE DRILLING B LLC,1,GLASS JOE 3H,1928.86125,GasWell,39.833511,-80.475458
GREYLOCK PROD LLC,1,KEMSOD 1MH,1.66292,GasWell,39.834139,-80.024046
RICE DRILLING B LLC,1,THROCKMORTON 1,1643.46145,GasWell,39.834261,-80.216811
RICE DRILLING B LLC,1,THROCKMORTON 5,1463.34052,GasWell,39.834286,-80.216853
RICE DRILLING B LLC,1,THROCKMORTON 2H,11.85923,GasWell,39.834289,-80.216681
RICE DRILLING B LLC,1,THROCKMORTON 7,1036.89269,GasWell,39.834314,-80.216894
RICE DRILLING B LLC,1,THROCKMORTON 3H,11.85923,GasWell,39.834331,-80.216667
RICE DRILLING B LLC,1,THROCKMORTON 9,834.16596,GasWell,39.834339,-80.216936
RICE DRILLING B LLC,1,THROCKMORTON 11,740.43118,GasWell,39.834367,-80.216975
RICE DRILLING B LLC,1,THROCKMORTON 17,742.71768,GasWell,39.834378,-80.216825
RICE DRILLING B LLC,1,THROCKMORTON 15,758.13256,GasWell,39.834403,-80.216867
RICE DRILLING B LLC,1,THROCKMORTON 13,712.56817,GasWell,39.834431,-80.216908
CHEVRON APPALACHIA LLC,1,REJISS UNIT 1H,730.54125,GasWell,39.835447,-79.884836
RICE DRILLING B LLC,1,PLHC 15H,7.63925,GasWell,39.836336,-80.277431
RICE DRILLING B LLC,1,PLHC 17H,7.63925,GasWell,39.83635,-80.2775
RICE DRILLING B LLC,1,PLHC 1H,7.63925,GasWell,39.836389,-80.277411
RICE DRILLING B LLC,1,PLHC 13H,7.63925,GasWell,39.836403,-80.277481
RICE DRILLING B LLC,1,PLHC 3H,7.63925,GasWell,39.836442,-80.277392
RICE DRILLING B LLC,1,PLHC 5H,7.65558,GasWell,39.836494,-80.277372
RICE DRILLING B LLC,1,PLHC 7H,7.63925,GasWell,39.836547,-80.277353
RICE DRILLING B LLC,1,PLHC 9H,7.39504,GasWell,39.8366,-80.277333
RICE DRILLING B LLC,1,PLHC 11H,9.78938,GasWell,39.836614,-80.277403
DIVERSIFIED OIL & GAS LLC,1,FILIAGGI 7,7.27757,GasWell,39.836833,-79.876055
DIVERSIFIED OIL & GAS LLC,1,BURCHIANTI 33,7.27757,GasWell,39.83723,-79.97098
CHEVRON APPALACHIA LLC,1,NIED UNIT 1H,734.66825,GasWell,39.838289,-80.050558
DIVERSIFIED OIL & GAS LLC,1,GENOVESE 10,7.27757,GasWell,39.838366,-79.880994
DIVERSIFIED OIL & GAS LLC,1,YASENOSKY UNIT 4,7.33177,GasWell,39.839386,-79.860907
RICE DRILLING B LLC,1,HEROLD A 11,901.69142,GasWell,39.840853,-80.468536
RICE DRILLING B LLC,1,HEROLD A 4,1377.17321,GasWell,39.840881,-80.468711
RICE DRILLING B LLC,1,HEROLD A 9,1250.5472,GasWell,39.840889,-80.468558
RICE DRILLING B LLC,1,HEROLD A 6,1324.65482,GasWell,39.840928,-80.468581
RICE DRILLING B LLC,1,HEROLD A 2,1491.72587,GasWell,39.840942,-80.468747
RICE DRILLING B LLC,1,HEROLD A 8,1196.2826,GasWell,39.840989,-80.468619
RICE DRILLING B LLC,1,HEROLD A 10,1105.25294,GasWell,39.84105,-80.468658
GREYLOCK PROD LLC,1,PENNECO/MORROW 2MH,1.98214,GasWell,39.841303,-80.086162
DIVERSIFIED OIL & GAS LLC,1,BURCHIANTI 30,7.31683,GasWell,39.842055,-79.975403
DIVERSIFIED OIL & GAS LLC,1,HONSAKER 15,4.99415,GasWell,39.845383,-79.885997
DIVERSIFIED OIL & GAS LLC,1,HONSAKER 16,4.99468,GasWell,39.845688,-79.880911
RICE DRILLING B LLC,1,ROGER PARRY 7H,0.2795,GasWell,39.845972,-80.406056
RICE DRILLING B LLC,1,ROGER PARRY 8H-A,12.13873,GasWell,39.845972,-80.406278
RICE DRILLING B LLC,1,ROGER PARRY 3H,13.77599,GasWell,39.846028,-80.406333
DIVERSIFIED OIL & GAS LLC,1,YASENOSKY 3,7.29624,GasWell,39.846313,-79.857604
CHEVRON APPALACHIA LLC,1,BURCHIANTI 62H,1116.01645,GasWell,39.84815,-79.970936
DIVERSIFIED OIL & GAS LLC,1,KIRCHNER UNIT 3,7.27757,GasWell,39.848456,-79.878569
CHEVRON APPALACHIA LLC,1,KIRCHNER UNIT 2H,471.76233,GasWell,39.848469,-79.878531
DIVERSIFIED OIL & GAS LLC,1,HONSAKER 17,4.99233,GasWell,39.849677,-79.886555
DIVERSIFIED OIL & GAS LLC,1,GIDEON 4,7.27757,GasWell,39.850719,-79.963044
GREYLOCK PROD LLC,1,BARNES - A J MORRIS 1MH,6021.73522,GasWell,39.851381,-80.113186
DIVERSIFIED OIL & GAS LLC,1,BURCHIANTI 24,7.27757,GasWell,39.852077,-79.968358
RICE DRILLING B LLC,1,CHARLES BEHM GRE 8H,9.48739,GasWell,39.852236,-80.424922
RICE DRILLING B LLC,1,CHARLES BEHM 6H,11.57785,GasWell,39.852335,-80.424942
RICE DRILLING B LLC,1,CHARLES BEHM 4H,11.85923,GasWell,39.852353,-80.425008
RICE DRILLING B LLC,1,CHARLES BEHM 2H,11.85923,GasWell,39.8524,-80.4251
RICE DRILLING B LLC,1,AMIGOS 7H,19.49848,GasWell,39.852494,-80.341336
RICE DRILLING B LLC,1,AMIGOS 6H,19.49848,GasWell,39.8525,-80.341258
RICE DRILLING B LLC,1,AMIGOS 4H,19.49848,GasWell,39.85255,-80.341228
RICE DRILLING B LLC,1,AMIGOS 3H,19.49848,GasWell,39.852597,-80.341281
RICE DRILLING B LLC,1,AMIGOS 2H,20.6056,GasWell,39.8526,-80.341203
RICE DRILLING B LLC,1,AMIGOS 1V,0.44284,GasWell,39.852647,-80.341253
RICE DRILLING B LLC,1,JAMES RICE GRE 10H,9.7316,GasWell,39.853361,-80.361
RICE DRILLING B LLC,1,JAMES RICE GRE 5H,7.35975,GasWell,39.853389,-80.360944
RICE DRILLING B LLC,1,JAMES RICE GRE 6H,7.35975,GasWell,39.853389,-80.361028
RICE DRILLING B LLC,1,JAMES RICE 1H,22.1411,GasWell,39.853417,-80.360972
RICE DRILLING B LLC,1,JAMES RICE GRE 8H,7.35975,GasWell,39.853417,-80.361056
GREYLOCK PROD LLC,1,SGL 223 1MH,705.92269,GasWell,39.853433,-80.090367
RICE DRILLING B LLC,1,JAMES RICE GRE 3H,7.35975,GasWell,39.853444,-80.361
RICE DRILLING B LLC,1,JAMES RICE 9H,7.35975,GasWell,39.853456,-80.3611
RICE DRILLING B LLC,1,JAMES RICE 7H,7.35975,GasWell,39.853486,-80.361131
RICE DRILLING B LLC,1,JAMES RICE 4H,7.35975,GasWell,39.853492,-80.361047
RICE DRILLING B LLC,1,JAMES RICE 2H,7.35975,GasWell,39.853514,-80.361164
RICE DRILLING B LLC,1,JAMES RICE 12H,7.35975,GasWell,39.853519,-80.361078
RICE DRILLING B LLC,1,JAMES RICE 11H,9.7316,GasWell,39.853544,-80.361194
RICE DRILLING B LLC,1,JAMES RICE 13H,7.35975,GasWell,39.853672,-80.361328
RICE DRILLING B LLC,1,JAMES RICE 14H,7.35975,GasWell,39.853708,-80.361275
GREYLOCK PROD LLC,1,SHARPNACK 1MH-S,25.97872,GasWell,39.855614,-80.0422
DIVERSIFIED OIL & GAS LLC,1,BURCHIANTI 6,7.28397,GasWell,39.857047,-79.986736
RICE DRILLING B LLC,1,BETA CAMERON 8,2114.23732,GasWell,39.857844,-80.450417
RICE DRILLING B LLC,1,BETA CAMERON 2,642.47824,GasWell,39.857875,-80.450517
RICE DRILLING B LLC,1,BETA CAMERON 10,1955.79032,GasWell,39.857908,-80.450383
RICE DRILLING B LLC,1,BETA CAMERON 4,0.2795,GasWell,39.857939,-80.450483
RICE DRILLING B LLC,1,BETA CAMERON 12,1017.66975,GasWell,39.857972,-80.45035
RICE DRILLING B LLC,1,BETA CAMERON 6,521.27374,GasWell,39.858003,-80.45045
EQT PROD CO,1,HUFFMAN 593945,1841.23866,GasWell,39.858133,-80.248636
EQT PROD CO,1,HUFFMAN 593958,833.77916,GasWell,39.858169,-80.248736
EQT PROD CO,1,HUFFMAN 593944,2518.23832,GasWell,39.858172,-80.248625
EQT PROD CO,1,HUFFMAN 593957,657.05112,GasWell,39.858208,-80.248725
EQT PROD CO,1,HUFFMAN 593943,2175.60135,GasWell,39.858214,-80.248617
EQT PROD CO,1,HUFFMAN 593956,813.10374,GasWell,39.85825,-80.248717
EQT PROD CO,1,HUFFMAN 593955,1118.65882,GasWell,39.858289,-80.248706
EQT PROD CO,1,HUFFMAN 593954,547.0828,GasWell,39.858331,-80.248694
EQT PROD CO,1,HUFFMAN 593953,2647.89786,GasWell,39.858369,-80.248686
EQT PROD CO,1,HUFFMAN 593952,2001.72094,GasWell,39.858411,-80.248675
DIVERSIFIED OIL & GAS LLC,1,BURCHIANTI 11A,7.27757,GasWell,39.858622,-79.997373
GREYLOCK PROD LLC,1,VERES 5MH,2664.72885,GasWell,39.859553,-80.088428
DIVERSIFIED OIL & GAS LLC,1,KOVACH 21,7.27757,GasWell,39.860294,-79.977058
CHEVRON APPALACHIA LLC,1,MILESKY UNIT 1H,287.12881,GasWell,39.861283,-80.245292
GREYLOCK PROD LLC,1,BRITNER 1MH-S,10.36969,GasWell,39.862111,-80.038592
DIVERSIFIED OIL & GAS LLC,1,KOLENCIK 2,7.36677,GasWell,39.863694,-79.830117
RICE DRILLING B LLC,1,MCNEELY 1,1511.68088,GasWell,39.863722,-80.274642
RICE DRILLING B LLC,1,MCNEELY 3,1669.53452,GasWell,39.863731,-80.274589
RICE DRILLING B LLC,1,MCNEELY 5,1354.2767,GasWell,39.863739,-80.274536
RICE DRILLING B LLC,1,MCNEELY 7,1298.42198,GasWell,39.863747,-80.274486
RICE DRILLING B LLC,1,MCNEELY 9,1480.00758,GasWell,39.863756,-80.274433
RICE DRILLING B LLC,1,MCNEELY 11,1596.59458,GasWell,39.863764,-80.274381
RICE DRILLING B LLC,1,MCNEELY 13,1665.97297,GasWell,39.863772,-80.274328
RICE DRILLING B LLC,1,MCNEELY 15,1485.94612,GasWell,39.863781,-80.274275
RICE DRILLING B LLC,1,MCNEELY 17,1477.41726,GasWell,39.863789,-80.274222
GREYLOCK PROD LLC,1,BLAKER MINOR 1MH-A,2.90011,GasWell,39.864083,-80.027479
GREYLOCK PROD LLC,1,MOHR B 2MH-S,2.91985,GasWell,39.864864,-80.052697
DIVERSIFIED OIL & GAS LLC,1,BOORD 7,7.27757,GasWell,39.865094,-79.983653
GREYLOCK CONVENTIONAL LLC,1,MOHR 3,0.86445,GasWell,39.867172,-80.048502
CHEVRON APPALACHIA LLC,1,HART UNIT 10H,717.52348,GasWell,39.867692,-79.962769
DIVERSIFIED OIL & GAS LLC,1,TOM 2,7.27757,GasWell,39.868524,-79.99295
GREYLOCK PROD LLC,1,GRIBBLE UNIT 2MH,3.36395,GasWell,39.869102,-80.012712
DIVERSIFIED OIL & GAS LLC,1,BOORD 6B,7.27757,GasWell,39.869241,-79.98495
RICE DRILLING B LLC,1,DON FLAMENCO 8,526.77062,GasWell,39.869314,-80.427417
RICE DRILLING B LLC,1,DON FLAMENCO 10,493.16312,GasWell,39.869339,-80.4275
RICE DRILLING B LLC,1,DON FLAMENCO 6,429.03998,GasWell,39.869364,-80.427583
RICE DRILLING B LLC,1,DON FLAMENCO 4,594.73943,GasWell,39.869389,-80.427667
RICE DRILLING B LLC,1,DON FLAMENCO 2,307.69748,GasWell,39.869414,-80.42775
RICE DRILLING B LLC,1,DON FLAMENCO 12,674.00449,GasWell,39.869417,-80.427364
GREYLOCK PROD LLC,1,MOHR A 1MH-S,63.11809,GasWell,39.869494,-80.055781
DIVERSIFIED OIL & GAS LLC,1,MCCLURE 4,4.97281,GasWell,39.870035,-79.951463
GREYLOCK CONVENTIONAL LLC,1,MOHR 6,0.89835,GasWell,39.871424,-80.058736
GREYLOCK PROD LLC,1,FULLER 1MH,1.50861,GasWell,39.872122,-80.003648
GREYLOCK PROD LLC,1,FULLER B 1MH-N,1.50861,GasWell,39.872811,-80.013219
DIVERSIFIED OIL & GAS LLC,1,PEVARNIK 9,11.88708,GasWell,39.873174,-79.965186
DIVERSIFIED OIL & GAS LLC,1,PEVARNIK 8,7.28642,GasWell,39.874508,-79.969727
CNX GAS CO LLC,1,WHIPKEY GH53BHS,335.70738,GasWell,39.878886,-80.381972
CNX GAS CO LLC,1,WHIPKEY WILLIAM UNIT 1H,242.10187,GasWell,39.878886,-80.382242
DIVERSIFIED OIL & GAS LLC,1,PEVARNIK 7,7.32024,GasWell,39.879325,-79.970056
DIVERSIFIED OIL & GAS LLC,1,BELL 10,9.60259,GasWell,39.879344,-79.983839
DIVERSIFIED OIL & GAS LLC,1,GROVES 8,7.27757,GasWell,39.881727,-80.00377
CNX GAS CO LLC,1,CONSOL GH55FHS,2502.18099,GasWell,39.882831,-80.3474
GREYLOCK PROD LLC,1,HOGE/NOCE 1MH,2.8419,GasWell,39.882974,-79.988773
GREYLOCK PROD LLC,1,CREE 6MH,4.28152,GasWell,39.883381,-80.049314
DIVERSIFIED OIL & GAS LLC,1,BELL 4,9.58232,GasWell,39.883485,-79.981997
GREYLOCK PROD LLC,1,HENDERSON/KING 2MH,1.04478,GasWell,39.88396,-80.026615
CNX GAS CO LLC,1,RHL22 AHS,15936.42375,GasWell,39.883975,-80.48105
CNX GAS CO LLC,1,MELZER GH58DHS,309.30406,GasWell,39.884164,-80.365361
GREYLOCK PROD LLC,1,MEADOWS 4MH,3.81454,GasWell,39.884183,-80.045317
GREYLOCK PROD LLC,1,PHILLIPPI 1MH,6.29433,GasWell,39.885172,-80.019383
DIVERSIFIED OIL & GAS LLC,1,GROVES 7,7.28504,GasWell,39.885874,-80.007384
GREYLOCK CONVENTIONAL LLC,1,V VIRGILI 1,0.86445,GasWell,39.886278,-80.044306
EQT PROD CO,1,CARPENTER 591359,1207.04345,GasWell,39.8863,-80.335592
EQT PROD CO,1,CARPENTER 590612,1880.9503,GasWell,39.886328,-80.335692
EQT PROD CO,1,CARPENTER 590610,2288.66179,GasWell,39.886358,-80.335792
EQT PROD CO,1,CARPENTER 590609,4.98979,GasWell,39.886372,-80.335842
EQT PROD CO,1,CARPENTER 593483,0.2795,GasWell,39.886389,-80.335689
EQT PROD CO,1,CARPENTER 593482,3281.81333,GasWell,39.886406,-80.335739
CNX GAS CO LLC,1,CONSOL PENNYSLVANIA COAL CO CNX-4,239.30872,GasWell,39.887872,-80.293791
CNX GAS CO LLC,1,CONSOL GH9AHSU,244.07412,GasWell,39.889847,-80.281428
RICE DRILLING B LLC,1,SHUMAKER 1H,1104.61807,GasWell,39.890356,-80.247842
RICE DRILLING B LLC,1,SHUMAKER 9H,9.03651,GasWell,39.890389,-80.247739
RICE DRILLING B LLC,1,SHUMAKER 2H,4.74369,GasWell,39.890397,-80.247889
RICE DRILLING B LLC,1,SHUMAKER 10H,4.74369,GasWell,39.890431,-80.247783
RICE DRILLING B LLC,1,SHUMAKER 3H,2.37184,GasWell,39.890439,-80.247936
RICE DRILLING B LLC,1,SHUMAKER 8H,2.37184,GasWell,39.890472,-80.247831
RICE DRILLING B LLC,1,SHUMAKER 4H,2.37184,GasWell,39.890481,-80.247981
RICE DRILLING B LLC,1,SHUMAKER 7H,2.37184,GasWell,39.890514,-80.247878
RICE DRILLING B LLC,1,SHUMAKER 12H,4.74369,GasWell,39.890522,-80.248028
CNX GAS CO LLC,1,RHL23 AHS,519.23876,GasWell,39.89115,-80.502047
DIVERSIFIED OIL & GAS LLC,1,WHIPKEY 9,7.31726,GasWell,39.891269,-80.005395
CNX GAS CO LLC,1,CONSOL GH35CV,247.18459,GasWell,39.891583,-80.297931
CNX GAS CO LLC,1,CONSOL GH2CV,255.16026,GasWell,39.891864,-80.285393
GREYLOCK CONVENTIONAL LLC,1,GRAY 1,2.56138,GasWell,39.892549,-79.985178
GREYLOCK PROD LLC,1,PECHIN LEASING 1MH,5.29771,GasWell,39.892994,-80.014419
CNX GAS CO LLC,1,CONSOL PENNSYLVANIA COAL CO CNX-3,239.27055,GasWell,39.893419,-80.29576
GREYLOCK PROD LLC,1,BARTHOLOMEW A 1MH-N,2.43628,GasWell,39.894233,-80.003186
DIVERSIFIED OIL & GAS LLC,1,WHIPKEY 8,7.28461,GasWell,39.894807,-80.000037
CNX GAS CO LLC,1,CONSOL CNX2B,239.37436,GasWell,39.895811,-80.286243
CNX GAS CO LLC,1,CONSOL PA COAL CO CNX-2A,247.22782,GasWell,39.895833,-80.286346
RICE DRILLING B LLC,1,RIDGE ROAD 1H,98.52123,GasWell,39.895847,-80.100717
RICE DRILLING B LLC,1,RIDGE ROAD 7H,4.74369,GasWell,39.895939,-80.100808
RICE DRILLING B LLC,1,RIDGE ROAD 6H,4.74369,GasWell,39.895958,-80.100764
RICE DRILLING B LLC,1,RIDGE ROAD 10H,4.74369,GasWell,39.895972,-80.100878
RICE DRILLING B LLC,1,RIDGE ROAD 5H,4.74369,GasWell,39.895981,-80.100717
RICE DRILLING B LLC,1,RIDGE ROAD 9H,4.74369,GasWell,39.895992,-80.100831
RICE DRILLING B LLC,1,RIDGE ROAD 4H,4.74369,GasWell,39.896014,-80.100783
RICE DRILLING B LLC,1,RIDGE ROAD 3H,4.74369,GasWell,39.896036,-80.100739
RICE DRILLING B LLC,1,ROHANNA 1H,12.2482,GasWell,39.896169,-80.124858
RICE DRILLING B LLC,1,ROHANNA 2H,12.10359,GasWell,39.896225,-80.124861
RICE DRILLING B LLC,1,ROHANNA 3H,7.39504,GasWell,39.896278,-80.124864
GREYLOCK PROD LLC,1,SKIB 6MH,3.69135,GasWell,39.896405,-80.069478
GREYLOCK PROD LLC,1,BARTHOLOMEW B 1MH-S,2.43628,GasWell,39.896658,-79.995733
EQT PROD CO,1,GREEN HILL 592337,28.03466,GasWell,39.896958,-80.317392
EQT PROD CO,1,GREENE HILL 592338,7.17799,GasWell,39.896967,-80.317425
EQT PROD CO,1,GREENE HILL 592339,7.17799,GasWell,39.896978,-80.317458
EQT PROD CO,1,GREENE HILL 592340,7.17799,GasWell,39.896986,-80.317492
EQT PROD CO,1,GREENE HILL 592341,7.17799,GasWell,39.896997,-80.317525
EQT PROD CO,1,GREENE HILL 592342,7.17799,GasWell,39.897008,-80.317558
EQT PROD CO,1,GREENE HILL 592343,7.17799,GasWell,39.897017,-80.317592
EQT PROD CO,1,GREENE HILL 592345,7.17799,GasWell,39.897036,-80.317658
EQT PROD CO,1,GREENE HILLE 592992,7.17799,GasWell,39.897047,-80.317692
EQT PROD CO,1,GREENE HILLE 592993,7.17799,GasWell,39.897056,-80.317725
EQT PROD CO,1,GREENE HILL 592994,7.17799,GasWell,39.897067,-80.317756
CNX GAS CO LLC,1,CONSOL GH19CV,237.02915,GasWell,39.897658,-80.343434
DIVERSIFIED OIL & GAS LLC,1,RUSH 18,7.27757,GasWell,39.897811,-80.029117
GREYLOCK CONVENTIONAL LLC,1,PHILLIPPI 2,0.88152,GasWell,39.898302,-80.017237
CNX GAS CO LLC,1,CONSOL GH34CV-A,239.30269,GasWell,39.89885,-80.27869
GREYLOCK PROD LLC,1,SKIB 3MH,1.97244,GasWell,39.900038,-80.066603
CNX GAS CO LLC,1,CONSOL GH8CV,237.00014,GasWell,39.901702,-80.294199
RICE DRILLING B LLC,1,GREENE COUNTY 1H,0.05057,GasWell,39.902228,-80.139214
DIVERSIFIED OIL & GAS LLC,1,BIDDLE 28,7.27757,GasWell,39.90236,-79.955649
CNX GAS CO LLC,1,CONSOL GH6CV,239.30269,GasWell,39.9028,-80.28654
CNX GAS CO LLC,1,LEWIS GH46JHS,375.75237,GasWell,39.902872,-80.346425
CHEVRON APPALACHIA LLC,1,CROUSHORE 10H,300.04181,GasWell,39.902881,-79.908739
RICE DRILLING B LLC,1,DENNIS CHOLAK GRE 8H,7.63925,GasWell,39.903222,-80.411028
CHEVRON APPALACHIA LLC,1,BRUNO UNIT 2H,458.01722,GasWell,39.903286,-80.201397
RICE DRILLING B LLC,1,DENNIS CHOLAK 50U,14.74291,GasWell,39.903372,-80.410925
RICE DRILLING B LLC,1,DENNIS CHOLAK 52U,7.63925,GasWell,39.903411,-80.410856
DIVERSIFIED OIL & GAS LLC,1,BIDDLE 22,7.27757,GasWell,39.903527,-79.960069
CNX GAS CO LLC,1,CONSOL GH10ACV-A,253.92817,GasWell,39.903788,-80.301541
RICE DRILLING B LLC,1,COSGRAY 1,2.75386,GasWell,39.903853,-80.170094
RICE DRILLING B LLC,1,COSGRAY 11,2697.21712,GasWell,39.903925,-80.170042
RICE DRILLING B LLC,1,COSGRAY 5,274.56253,GasWell,39.903958,-80.170119
RICE DRILLING B LLC,1,COSGRAY 13,2542.63543,GasWell,39.903961,-80.170014
RICE DRILLING B LLC,1,COSGRAY 7,88.09552,GasWell,39.903994,-80.170092
RICE DRILLING B LLC,1,COSGRAY 15,597.88986,GasWell,39.903997,-80.169989
DIVERSIFIED OIL & GAS LLC,1,JUROSCO 1,7.29518,GasWell,39.904035,-79.820275
CHEVRON APPALACHIA LLC,1,ZALAC UNIT 10H,1919.59545,GasWell,39.904611,-79.858172
RICE DRILLING B LLC,1,LAMAR TRUST 2H,9.73175,GasWell,39.904928,-80.144775
RICE DRILLING B LLC,1,LAMAR TRUST 1H,9.82615,GasWell,39.904999,-80.144577
DIVERSIFIED PROD LLC,1,LARRY VOUGH 1,0.3633,GasWell,39.905081,-79.278799
DIVERSIFIED OIL & GAS LLC,1,BUDAY 10,7.27757,GasWell,39.905913,-79.996356
DIVERSIFIED OIL & GAS LLC,1,SWARTZ 4,7.28344,GasWell,39.906429,-79.945243
DIVERSIFIED OIL & GAS LLC,1,BUDAY 9,7.27757,GasWell,39.906493,-79.989911
CNX GAS CO LLC,1,CONSOL GH11CV,254.20057,GasWell,39.906497,-80.299696
DIVERSIFIED OIL & GAS LLC,1,WILLIS 20,7.28023,GasWell,39.907679,-80.012179
GREYLOCK PROD LLC,1,BROADWATER 1MH-S,4.2916,GasWell,39.908036,-80.055328
CHEVRON APPALACHIA LLC,1,YARECK 1H-A,672.92956,GasWell,39.908489,-80.035386
DIVERSIFIED OIL & GAS LLC,1,HEADLEE 6,14.19184,GasWell,39.908954,-79.95198
CNX GAS CO LLC,1,CONSOL GH15CV,237.05075,GasWell,39.909211,-80.30743
DIVERSIFIED OIL & GAS LLC,1,BIDDLE 27,7.27757,GasWell,39.909785,-79.968522
CHEVRON APPALACHIA LLC,1,CITRO UNIT 2H,732.1863,GasWell,39.909814,-80.260319
DIVERSIFIED OIL & GAS LLC,1,WILLIS 16,7.27757,GasWell,39.909902,-80.01499
EQT PROD CO,1,I PIERCE 591982,5.51162,GasWell,39.910386,-80.278894
EQT PROD CO,1,I PIERCE 591981,7.88346,GasWell,39.910403,-80.278944
EQT PROD CO,1,I PIERCE 591660,5.51162,GasWell,39.910417,-80.278994
EQT PROD CO,1,I PIERCE 591354,5.51162,GasWell,39.910431,-80.279044
EQT PROD CO,1,I PIERCE 591353,5.51162,GasWell,39.910447,-80.279094
EQT PROD CO,1,I PIERCE 591352,5.51162,GasWell,39.910461,-80.279144
EQT PROD CO,1,I PIERCE 591351,5.51162,GasWell,39.910478,-80.279194
EQT PROD CO,1,I PIERCE 591350,5.51162,GasWell,39.910492,-80.279244
EQT PROD CO,1,I PIERCE 591349,5.51162,GasWell,39.910506,-80.279294
EQT PROD CO,1,I PIERCE 591348,5.51162,GasWell,39.910522,-80.279344
EQT PROD CO,1,I PIERCE 591347,9.5032,GasWell,39.910536,-80.279394
CNX GAS CO LLC,1,CONSOL GH14CV,237.00014,GasWell,39.910844,-80.300816
DIVERSIFIED OIL & GAS LLC,1,BIDDLE 14,7.28291,GasWell,39.911063,-79.958419
CHEVRON APPALACHIA LLC,1,FDS UNIT 6H,471.86606,GasWell,39.911161,-79.911197
CHEVRON APPALACHIA LLC,1,BUDAY UNIT 11H,469.77667,GasWell,39.911175,-79.990169
DIVERSIFIED OIL & GAS LLC,1,BIDDLE 12,0.0064,GasWell,39.912577,-79.961852
RICE DRILLING B LLC,1,PATTON 6H,2.61605,GasWell,39.913011,-80.244053
RICE DRILLING B LLC,1,PATTON 7H,3.12734,GasWell,39.913044,-80.244111
RICE DRILLING B LLC,1,PATTON 5H,2.67212,GasWell,39.913078,-80.244169
RICE DRILLING B LLC,1,PATTON 4H,2.61605,GasWell,39.913108,-80.244228
RICE DRILLING B LLC,1,PATTON 9H,2.61605,GasWell,39.913136,-80.244069
RICE DRILLING B LLC,1,PATTON 3H,2.61605,GasWell,39.913142,-80.244286
RICE DRILLING B LLC,1,PATTON 8H,2.61605,GasWell,39.913169,-80.244128
RICE DRILLING B LLC,1,PATTON 2H,2.61605,GasWell,39.913175,-80.244344
CNX GAS CO LLC,1,RHL4 CHS,728.95466,GasWell,39.9132,-80.496994
RICE DRILLING B LLC,1,PATTON 15H,2.91689,GasWell,39.913203,-80.244186
RICE DRILLING B LLC,1,PATTON 1H,11.43826,GasWell,39.913206,-80.244403
RICE DRILLING B LLC,1,PATTON 16H,2.86028,GasWell,39.913233,-80.244242
EQT PROD CO,1,D THARP 591124,7.17468,GasWell,39.913311,-80.271961
EQT PROD CO,1,D THARP 591125,2.65134,GasWell,39.913328,-80.272011
RICE DRILLING B LLC,1,PULTORAK 2H,7.3599,GasWell,39.913336,-80.134244
EQT PROD CO,1,D THARP 591126,2.65134,GasWell,39.913342,-80.272061
RICE DRILLING B LLC,1,PULTORAK 1H,7.57958,GasWell,39.913356,-80.134178
EQT PROD CO,1,D THARP 591127,2.65134,GasWell,39.913358,-80.272111
EQT PROD CO,1,D THARP 591211,2.65134,GasWell,39.913372,-80.272161
EQT PROD CO,1,D THARP 591212,2.65134,GasWell,39.913386,-80.272211
EQT PROD CO,1,D THARP 591213,2.65134,GasWell,39.913403,-80.272261
EQT PROD CO,1,D THARP 591214,2.65134,GasWell,39.913417,-80.272311
EQT PROD CO,1,D THARP 591215,2.65134,GasWell,39.913433,-80.272361
EQT PROD CO,1,D THARP 591216,2.65134,GasWell,39.913447,-80.272408
EQT PROD CO,1,D THARP 591713,2.65134,GasWell,39.913461,-80.272458
DIVERSIFIED OIL & GAS LLC,1,CARTER UNIT 12H,117.04674,GasWell,39.913492,-80.001069
DIVERSIFIED OIL & GAS LLC,1,CARTER UNIT 11,16.49659,GasWell,39.913522,-80.001072
DIVERSIFIED OIL & GAS LLC,1,CHRISTOPHER 10,7.35044,GasWell,39.913579,-79.859663
CHEVRON APPALACHIA LLC,1,HEADLEE UNIT 9H,229.11321,GasWell,39.913769,-79.952347
EQT PROD CO,1,WEST RUN 591407,4.98791,GasWell,39.91385,-80.302831
CNX GAS CO LLC,1,GOODWIN GH56CHS,300.45855,GasWell,39.913853,-80.337894
EQT PROD CO,1,WEST RUN ROG167H8,5.05036,GasWell,39.913869,-80.302897
EQT PROD CO,1,WEST RUN 591403,4.98791,GasWell,39.913886,-80.302947
EQT PROD CO,1,WEST RUN 591402,4.98791,GasWell,39.9139,-80.302997
EQT PROD CO,1,WEST RUN 591401,4.98791,GasWell,39.913917,-80.303047
EQT PROD CO,1,WEST RUN 591400,4.98791,GasWell,39.913931,-80.303097
EQT PROD CO,1,WEST RUN 591399,4.98791,GasWell,39.913944,-80.303147
EQT PROD CO,1,WEST RUN 591398,15.36026,GasWell,39.913961,-80.303197
EQT PROD CO,1,WEST RUN 591404,4.98791,GasWell,39.913975,-80.303247
DIVERSIFIED OIL & GAS LLC,1,KERR 9,7.27757,GasWell,39.914,-79.937447
EQT PROD CO,1,WEST RUN ROG167H14,4.80614,GasWell,39.914006,-80.303144
CHEVRON APPALACHIA LLC,1,HARTLEY UNIT 10H,1421.2527,GasWell,39.914014,-79.883433
EQT PROD CO,1,WEST RUN ROG167H17,4.98791,GasWell,39.914022,-80.303194
GREYLOCK PROD LLC,1,STELCO 3MH,1.97244,GasWell,39.914047,-80.084375
GREYLOCK CONVENTIONAL LLC,1,PHILLIPS 3,0.86445,GasWell,39.915049,-79.990161
DIVERSIFIED OIL & GAS LLC,1,PRAH 2A,7.28237,GasWell,39.916265,-79.868502
DIVERSIFIED OIL & GAS LLC,1,WILLIS 24,7.28397,GasWell,39.918794,-80.017231
CHEVRON APPALACHIA LLC,1,KOVACH B M01H,956.65692,GasWell,39.918933,-79.854808
DIVERSIFIED OIL & GAS LLC,1,HATHAWAY 8,7.28504,GasWell,39.91915,-79.977467
DIVERSIFIED OIL & GAS LLC,1,WILLIS 23,7.2845,GasWell,39.919343,-80.007365
DIVERSIFIED OIL & GAS LLC,1,KOVACH UNIT 34H,112.4495,GasWell,39.919551,-79.846351
DIVERSIFIED OIL & GAS LLC,1,KOVACH UNIT 24,7.27757,GasWell,39.919551,-79.846379
RICE DRILLING B LLC,1,GRECOE 32H,1197.35783,GasWell,39.920092,-80.379844
RICE DRILLING B LLC,1,GRECOE 34H,4.74369,GasWell,39.920106,-80.379894
RICE DRILLING B LLC,1,GRECOE 36H,2.37184,GasWell,39.920119,-80.379944
RICE DRILLING B LLC,1,GRECOE 9H,2.37184,GasWell,39.92015,-80.380044
RICE DRILLING B LLC,1,GRECOE 8H,2.37184,GasWell,39.920167,-80.380094
RICE DRILLING B LLC,1,GRECOE 6H,13.63404,GasWell,39.920211,-80.380244
RICE DRILLING B LLC,1,GRECOE 7H,2.37184,GasWell,39.920225,-80.380294
RICE DRILLING B LLC,1,GRECOE 27H,4.74369,GasWell,39.920292,-80.380231
CHEVRON APPALACHIA LLC,1,GROOMS UNIT 10H,1826.25838,GasWell,39.92195,-80.218186
DIVERSIFIED OIL & GAS LLC,1,KREPPS 3,7.32024,GasWell,39.922407,-79.885516
EQT PROD CO,1,OLCZAK 590420,7.11554,GasWell,39.922589,-80.269539
EQT PROD CO,1,OLCZAK 590419,7.11554,GasWell,39.9226,-80.269572
EQT PROD CO,1,OLCZAK 593512,7.11554,GasWell,39.922608,-80.269603
EQT PROD CO,1,OLCZAK 593511,1945.52856,GasWell,39.922619,-80.269636
EQT PROD CO,1,OLCZAK 593510,1783.68253,GasWell,39.922631,-80.269669
EQT PROD CO,1,OLCZAK 592376,1666.45733,GasWell,39.922639,-80.269703
EQT PROD CO,1,OLCZAK 592375,444.01943,GasWell,39.92265,-80.269736
EQT PROD CO,1,OLCZAK 592374,133.46235,GasWell,39.922658,-80.269769
EQT PROD CO,1,OLCZAK ROG54H15,1101.02508,GasWell,39.922672,-80.269811
EQT PROD CO,1,OLCZAK 590417,722.17664,GasWell,39.922683,-80.269853
EQT PROD CO,1,OLCZAK ROG54H13,699.66813,GasWell,39.922714,-80.269953
RICE DRILLING B LLC,1,PORTER STREET 8H,4.74369,GasWell,39.922933,-80.15875
RICE DRILLING B LLC,1,PORTER STREET 1H,12.11995,GasWell,39.922947,-80.158969
RICE DRILLING B LLC,1,PORTER STREET 3H,4.74369,GasWell,39.922956,-80.158794
RICE DRILLING B LLC,1,PORTER STREET 2H,4.74369,GasWell,39.922978,-80.159008
RICE DRILLING B LLC,1,PORTER STREET 10H,4.74369,GasWell,39.922981,-80.158836
RICE DRILLING B LLC,1,PORTER STREET 4H,4.74369,GasWell,39.923006,-80.158881
RICE DRILLING B LLC,1,PORTER STREET 7H,4.74369,GasWell,39.923019,-80.159031
RICE DRILLING B LLC,1,PORTER STREET 5H,4.74369,GasWell,39.923064,-80.159122
RICE DRILLING B LLC,1,PORTER STREET 6H,4.74369,GasWell,39.923092,-80.159161
GREYLOCK CONVENTIONAL LLC,1,ST WHIPKEY 1,1.17632,GasWell,39.923565,-80.003159
EQT PROD CO,1,MOORE 591298,4.98791,GasWell,39.923592,-80.337392
EQT PROD CO,1,MOORE 591297,4.98791,GasWell,39.923631,-80.337381
EQT PROD CO,1,MOORE 591128,14.42998,GasWell,39.923672,-80.337369
EQT PROD CO,1,MOORE 591129,7.35975,GasWell,39.923711,-80.337358
EQT PROD CO,1,MOORE 591130,4.98791,GasWell,39.923753,-80.337347
EQT PROD CO,1,MOORE 591131,4.98791,GasWell,39.923792,-80.337336
EQT PROD CO,1,BEAZER 592769,14.23107,GasWell,39.923833,-80.093803
EQT PROD CO,1,MOORE 591132,4.98791,GasWell,39.923833,-80.337325
EQT PROD CO,1,BEAZER 592767,14.23107,GasWell,39.923861,-80.093903
EQT PROD CO,1,MOORE 591133,4.98791,GasWell,39.923872,-80.337314
EQT PROD CO,1,BEAZER 592326,14.23107,GasWell,39.923875,-80.093956
EQT PROD CO,1,BEAZER 592325,14.23107,GasWell,39.923886,-80.094006
EQT PROD CO,1,BEAZER 592324,14.23107,GasWell,39.9239,-80.094056
EQT PROD CO,1,BEAZER 592323,14.23107,GasWell,39.923914,-80.094106
EQT PROD CO,1,MOORE 591134,4.98791,GasWell,39.923914,-80.337303
EQT PROD CO,1,BEAZER 592322,23.32732,GasWell,39.923928,-80.094156
EQT PROD CO,1,MOORE 591135,4.98791,GasWell,39.923953,-80.337292
EQT PROD CO,1,BEAZER 592772,11.85923,GasWell,39.923961,-80.094056
EQT PROD CO,1,BEAZER 592771,14.25904,GasWell,39.923975,-80.094106
EQT PROD CO,1,MOORE 594004,9.54984,GasWell,39.923981,-80.337186
DIVERSIFIED OIL & GAS LLC,1,BIDDLE 30,7.27757,GasWell,39.924304,-79.966913
EQT PROD CO,1,STROPE 591408,246.53823,GasWell,39.924456,-80.1295
EQT PROD CO,1,STROPE 593374,762.71998,GasWell,39.924464,-80.129853
EQT PROD CO,1,STROPE 593373,1270.81006,GasWell,39.924475,-80.129886
EQT PROD CO,1,STROPE 593372,604.17718,GasWell,39.924481,-80.129922
EQT PROD CO,1,STROPE 593371,696.60751,GasWell,39.924492,-80.129956
EQT PROD CO,1,STROPE 593370,7.17799,GasWell,39.9245,-80.129989
EQT PROD CO,1,STROPE 593172,7.17799,GasWell,39.924511,-80.130022
EQT PROD CO,1,STROPE 593171,7.17799,GasWell,39.924519,-80.130056
EQT PROD CO,1,STROPE 593170,10.06527,GasWell,39.924528,-80.130089
EQT PROD CO,1,STROPE 593169,7.17799,GasWell,39.924536,-80.130122
EQT PROD CO,1,STROPE 593164,7.19938,GasWell,39.924583,-80.129969
EQT PROD CO,1,STROPE 593165,7.17799,GasWell,39.924592,-80.130003
EQT PROD CO,1,STROPE 593166,7.19907,GasWell,39.924603,-80.130036
EQT PROD CO,1,STROPE 593167,777.31378,GasWell,39.924611,-80.130069
EQT PROD CO,1,STROPE 593168,7.17799,GasWell,39.924619,-80.130106
RICE DRILLING B LLC,1,WHIPKEY 1H,33.89764,GasWell,39.925417,-80.393806
DIVERSIFIED OIL & GAS LLC,1,BOBBISH 4,7.2861,GasWell,39.925732,-79.858826
DIVERSIFIED OIL & GAS LLC,1,WILLIS 18,7.28216,GasWell,39.926493,-79.994392
DIVERSIFIED OIL & GAS LLC,1,MORTON 10,7.27757,GasWell,39.927026,-80.009387
CHEVRON APPALACHIA LLC,1,HOEHN UNIT 10H,1439.63309,GasWell,39.927969,-79.918828
DIVERSIFIED OIL & GAS LLC,1,UDOVICH UNIT 3,7.27757,GasWell,39.928029,-79.962313
DIVERSIFIED OIL & GAS LLC,1,GAYDOS 11,4.98529,GasWell,39.928568,-79.971838
DIVERSIFIED OIL & GAS LLC,1,MITCHELL 20,7.28504,GasWell,39.929003,-80.020489
CHEVRON APPALACHIA LLC,1,HALL-HOGSETT UNIT 12H,633.23972,GasWell,39.92935,-79.908867
DIVERSIFIED OIL & GAS LLC,1,MORTON 9,7.28333,GasWell,39.929418,-80.004806
DIVERSIFIED OIL & GAS LLC,1,HADENAK 3,7.32803,GasWell,39.930009,-79.857149
DIVERSIFIED OIL & GAS LLC,1,TERCHO-SHIMKO 3,7.30691,GasWell,39.930248,-79.851451
DIVERSIFIED OIL & GAS LLC,1,WILLIS 19A,7.28878,GasWell,39.930257,-79.990031
DIVERSIFIED OIL & GAS LLC,1,CHRISTOPHER 9,7.31694,GasWell,39.930898,-79.872713
EQT PROD CO,1,HARDEN FARMS ROG230H32,2592.87089,GasWell,39.931725,-80.256458
EQT PROD CO,1,HARDEN FARMS ROG230H31,264.40668,GasWell,39.931753,-80.256444
EQT PROD CO,1,HARDEN FARMS ROG230H34,1274.72239,GasWell,39.931794,-80.256539
EQT PROD CO,1,SCOTTS RUN 590956,7.35975,GasWell,39.931806,-80.3285
EQT PROD CO,1,SCOTTS RUN 590957,7.35975,GasWell,39.931819,-80.32855
EQT PROD CO,1,HARDEN FARMS 592084,9.48739,GasWell,39.931828,-80.256406
EQT PROD CO,1,SCOTTS RUN 590958,4.98791,GasWell,39.931836,-80.3286
EQT PROD CO,1,SCOTTS RUN 590986,4.98791,GasWell,39.93185,-80.32865
EQT PROD CO,1,HARDEN FARMS 592083,9.48739,GasWell,39.931853,-80.256392
EQT PROD CO,1,SCOTTS RUN 590987,4.98791,GasWell,39.931867,-80.3287
EQT PROD CO,1,HARDEN FARMS 592082,11.85923,GasWell,39.931881,-80.256381
EQT PROD CO,1,SCOTTS RUN 590988,4.98791,GasWell,39.931881,-80.32875
EQT PROD CO,1,SCOTTS RUN 591336,4.98791,GasWell,39.931894,-80.3288
EQT PROD CO,1,HARDEN FARMS 592081,11.85923,GasWell,39.931906,-80.256367
EQT PROD CO,1,SCOTTS RUN 591337,4.98791,GasWell,39.931911,-80.32885
EQT PROD CO,1,SCOTTS RUN 591338,4.98791,GasWell,39.931925,-80.3289
EQT PROD CO,1,HARDEN FARMS 592080,11.85923,GasWell,39.931931,-80.256353
EQT PROD CO,1,HARDEN FARMS 592079,11.85923,GasWell,39.931956,-80.256342
EQT PROD CO,1,SCOTTS RUN 591340,35.32025,GasWell,39.931956,-80.328997
EQT PROD CO,1,HARDEN FARMS 592078,21.55931,GasWell,39.931981,-80.256328
CHEVRON APPALACHIA LLC,1,HOWE UNIT 5H,851.50906,GasWell,39.933081,-79.903014
WEST TEXAS OPERATING CO LLC D/B/A XTREME ENERGY CO,1,MENHORN 2H,574.62078,GasWell,39.93321,-79.001143
DIVERSIFIED OIL & GAS LLC,1,BOLEN 2,7.28131,GasWell,39.933274,-79.968749
DIVERSIFIED OIL & GAS LLC,1,SKOVRAN 23,7.31875,GasWell,39.933418,-79.859338
DIVERSIFIED OIL & GAS LLC,1,MORTON 8,7.27757,GasWell,39.933474,-80.004034
EQT PROD CO,1,WALKER B 590905,15.55294,GasWell,39.9335,-80.317
EQT PROD CO,1,WALKER B 590906,12.38294,GasWell,39.9335,-80.317056
EQT PROD CO,1,WALKER B 590907,12.38294,GasWell,39.933528,-80.317111
EQT PROD CO,1,WALKER B 590908,12.38294,GasWell,39.933539,-80.317161
RICE DRILLING B LLC,1,JACOBS 9H,7.39504,GasWell,39.933542,-80.394269
EQT PROD CO,1,WALKER B 590909,12.38294,GasWell,39.933556,-80.317222
RICE DRILLING B LLC,1,JACOBS 11H,11.94399,GasWell,39.933567,-80.39435
RICE DRILLING B LLC,1,JACOBS 7H,7.39504,GasWell,39.933578,-80.3942
EQT PROD CO,1,WALKER B 591204,12.38294,GasWell,39.933581,-80.3173
EQT PROD CO,1,WALKER B 591205,12.38294,GasWell,39.933592,-80.317339
RICE DRILLING B LLC,1,JACOBS 1H,9.76689,GasWell,39.933594,-80.394433
EQT PROD CO,1,WALKER B 590910,12.38294,GasWell,39.933606,-80.317378
RICE DRILLING B LLC,1,JACOBS 5H,7.39504,GasWell,39.933606,-80.394281
EQT PROD CO,1,WALKER B 591207,12.38294,GasWell,39.933617,-80.317419
EQT PROD CO,1,WALKER B 591208,12.38294,GasWell,39.933639,-80.317444
RICE DRILLING B LLC,1,JACOBS 3H,9.76689,GasWell,39.933647,-80.394406
EQT PROD CO,1,WALKER B 591210-A,12.13873,GasWell,39.933653,-80.317539
DIVERSIFIED OIL & GAS LLC,1,SKOVRAN 22,7.2861,GasWell,39.934021,-79.863496
DIVERSIFIED OIL & GAS LLC,1,MACK 7,7.27757,GasWell,39.93404,-80.029574
CHEVRON APPALACHIA LLC,1,DICARLO UNIT 13H,1254.67149,GasWell,39.934281,-79.895722
RICE DRILLING B LLC,1,WILEY 15H,4.74369,GasWell,39.934581,-80.354375
RICE DRILLING B LLC,1,WILEY 3H,2.37184,GasWell,39.934597,-80.354428
RICE DRILLING B LLC,1,WILEY 7H,2.37184,GasWell,39.934614,-80.354483
RICE DRILLING B LLC,1,WILEY 6H,2.37184,GasWell,39.934628,-80.354536
RICE DRILLING B LLC,1,WILEY 5H,2.37184,GasWell,39.934644,-80.354589
RICE DRILLING B LLC,1,WILEY 4H,2.37184,GasWell,39.934661,-80.354644
RICE DRILLING B LLC,1,WILEY 2H,2.37184,GasWell,39.934678,-80.354697
RICE DRILLING B LLC,1,WILEY 1H,41.71413,GasWell,39.934694,-80.35475
RICE DRILLING B LLC,1,WILEY 16H,4.74369,GasWell,39.934711,-80.354806
CHEVRON APPALACHIA LLC,1,SKOVRAN UNIT 32H,386.79011,GasWell,39.935247,-79.853619
DIVERSIFIED OIL & GAS LLC,1,FAIRBANK ROD & GUN CLUB 6,4.98454,GasWell,39.935323,-79.841856
EQT PROD CO,1,PATTERSON CREEK 591363,5.02319,GasWell,39.935739,-80.307622
EQT PROD CO,1,PATTERSON CREEK 591362,5.02319,GasWell,39.935753,-80.307667
EQT PROD CO,1,PATTERSON CREEK 591361,5.02319,GasWell,39.935767,-80.307711
EQT PROD CO,1,PATTERSON CREEK 591360,5.02319,GasWell,39.935781,-80.307756
EQT PROD CO,1,PATTERSON CREEK 591185,5.02319,GasWell,39.935794,-80.307803
EQT PROD CO,1,PATTERSON CREEK 590916,5.02319,GasWell,39.935808,-80.307847
EQT PROD CO,1,PATTERSON CREEK 590915,7.39504,GasWell,39.935819,-80.307892
EQT PROD CO,1,PATTERSON CREEK 590914,7.39504,GasWell,39.935833,-80.307936
EQT PROD CO,1,PATTERSON CREEK 590913,7.39504,GasWell,39.935847,-80.307981
EQT PROD CO,1,PATTERSON CREEK 590912,7.39504,GasWell,39.935861,-80.308025
EQT PROD CO,1,PATTERSON CREEK 590911,12.05849,GasWell,39.935875,-80.308069
EQT PROD CO,1,D IAMS 590036,9.72146,GasWell,39.93636,-80.294749
EQT PROD CO,1,D IAMS 590319 (PHILLIPS),7.88346,GasWell,39.936364,-80.29485
EQT PROD CO,1,D IAMS 590318 (PHILLIPS),7.88346,GasWell,39.936383,-80.294803
EQT PROD CO,1,D IAMS 590316,7.88346,GasWell,39.936388,-80.294666
EQT PROD CO,1,D IAMS 590315,7.88346,GasWell,39.936388,-80.294693
EQT PROD CO,1,D IAMS 592111,7.88346,GasWell,39.936456,-80.294861
EQT PROD CO,1,D IAMS 590317,7.88346,GasWell,39.936467,-80.294617
EQT PROD CO,1,D IAMS 592112,7.88346,GasWell,39.936475,-80.294814
EQT PROD CO,1,D IAMS 592113,7.88346,GasWell,39.936494,-80.294767
CHEVRON APPALACHIA LLC,1,BEDILION UNIT 1H,1164.90263,GasWell,39.936758,-80.156225
CNX GAS CO LLC,1,ADAMS RHL13AHSM,768.08525,GasWell,39.936948,-80.486825
CHEVRON APPALACHIA LLC,1,SKOVRAN UNIT 37H,902.01566,GasWell,39.937003,-79.873311
DIVERSIFIED OIL & GAS LLC,1,BECK 5,9.58552,GasWell,39.937479,-79.96211
XTO ENERGY INC,1,HALL 8423H,25.11395,GasWell,39.93752,-79.469236
DIVERSIFIED OIL & GAS LLC,1,CONSOL/USX 59,9.58232,GasWell,39.938532,-79.966805
EQT PROD CO,1,BEHM 1H,5.51162,GasWell,39.9393,-80.046922
DIVERSIFIED OIL & GAS LLC,1,FAIRBANK ROD & GUN CLUB 3,4.97281,GasWell,39.940234,-79.835526
LPR ENERGY LLC,1,SAYLOR UNIT 2H,332.6889,GasWell,39.940732,-79.246674
DIVERSIFIED OIL & GAS LLC,1,JAREK 6,7.2861,GasWell,39.940848,-79.955735
LPR ENERGY LLC,1,BOWERS WEST UNIT 1H,329.56947,GasWell,39.941364,-79.229581
EQT PROD CO,1,W L HOPKINS 590312,9.48739,GasWell,39.941388,-80.264387
